"stop_id","stop_name","stop_lat","stop_lon","location_type","platform_code"
"11601","Bad Dürkheim Bahnhof","49.4615111","8.1704019","0","1"
"13401","Bad Dürkheim Ost","49.4634369","8.1850539","0","1"
"13402","Bad Dürkheim Ost","49.463315","8.184245","0","2"
"51501","Dossenheim Bahnhof","49.4481911","8.6701711","0","1"
"51502","Dossenheim Bahnhof","49.4485531","8.6695331","0","2"
"51601","Dossenheim Süd","49.4455631","8.6752911","0","1"
"51602","Dossenheim Süd","49.4460531","8.674995","0","2"
"61611","Edingen Ost","49.4446689","8.6175481","0","B"
"61612","Edingen Ost","49.4443939","8.6179881","0","A"
"61711","Thomas-Mann-Straße","49.46631","8.6004969","0","A"
"61712","Thomas-Mann-Straße","49.4662861","8.6004169","0","B"
"61901","Edingen Bahnhof","49.4415439","8.614475","0","2"
"61902","Edingen Bahnhof","49.4411469","8.6153739","0","1"
"61903","Edingen Bahnhof","49.4415731","8.6145111","0","3"
"61911","Edingen Bahnhof","49.4418539","8.6152931","0","A"
"62011","Pfälzer Hof","49.4506031","8.6094089","0","B"
"62012","Pfälzer Hof","49.4508361","8.6090581","0","A"
"62111","Edingen Rathaus","49.4475661","8.613065","0","B"
"62112","Edingen Rathaus","49.4472269","8.6135231","0","A"
"62211","Schillerstraße","49.4429231","8.6197839","0","A"
"62301","Edingen West","49.4474019","8.6035431","0","2"
"62302","Edingen West","49.4464389","8.6050611","0","1"
"62411","Neckarhausen Brücke","49.4685689","8.59871","0","A"
"62412","Neckarhausen Brücke","49.4691181","8.5975869","0","B"
"62511","Neckarhausen Ost","49.4602139","8.6057711","0","A"
"62512","Neckarhausen Ost","49.4588831","8.6064531","0","B"
"62611","Neckarhausen Schloss","49.4641789","8.6025189","0","A"
"62612","Neckarhausen Schloss","49.4646169","8.6020339","0","B"
"62711","Neckarhausen West","49.4694269","8.5895469","0","A"
"62712","Neckarhausen West","49.469375","8.589745","0","B"
"62811","Ahornstraße","49.44516","8.5809139","0","A"
"62901","Neu-Edingen Gewerbegebiet","49.45427","8.5913711","0","2"
"62902","Neu-Edingen Gewerbegebiet","49.4543169","8.591155","0","1"
"62911","Neu-Edingen Gewerbegebiet","49.4542639","8.5927089","0","B"
"62912","Neu-Edingen Gewerbegebiet","49.4543581","8.5926369","0","A"
"62913","Neu-Edingen Gewerbegebiet","49.4536569","8.5913439","0","C"
"62914","Neu-Edingen Gewerbegebiet","49.4536511","8.5911011","0","D"
"63011","Breslauer Straße","49.4494761","8.5854061","0","A"
"63012","Breslauer Straße","49.4495919","8.5854961","0","B"
"63111","Lilienstraße","49.4458719","8.582235","0","A"
"63112","Lilienstraße","49.445995","8.5823519","0","B"
"65601","Ellerstadt Ost","49.46405","8.264285","0","1"
"65602","Ellerstadt Ost","49.46415","8.2646081","0","2"
"65801","Ellerstadt West","49.4625789","8.25488","0","1"
"65802","Ellerstadt West","49.4626139","8.2551761","0","2"
"69501","Jakobsgasse","49.4010019","8.63307","0","B"
"69522","Jakobsgasse","49.4010431","8.6328369","0","A"
"69601","Kirchheimer Straße","49.3992369","8.6265131","0","A"
"69701","Eppelheim Rathaus","49.40161","8.6291","0","B"
"69702","Eppelheim Rathaus","49.4016281","8.6288661","0","A"
"77111","FT Hauptbahnhof","49.5363811","8.3502719","0","6"
"77811","FT Feierabendhaus","49.5373719","8.3587969","0","A"
"77812","FT Feierabendhaus","49.53792","8.3590931","0","B"
"78211","FT Hallenbad","49.5349989","8.36283","0","A"
"78212","FT Hallenbad","49.5351981","8.3617069","0","B"
"78811","FT Kugelfang","49.5363231","8.3767631","0","A"
"78812","FT Kugelfang","49.5363519","8.3755861","0","B"
"80612","FT Wormser Tor","49.5381419","8.3532089","0","A"
"82011","Studernheim Süd","49.4989111","8.36504","0","A"
"82311","FT Schmiedgasse","49.5369169","8.3550331","0","A"
"82411","FT Altenheim","49.53595","8.3600269","0","A"
"82412","FT Altenheim","49.5359031","8.3601531","0","B"
"82911","Lutherstraße","49.4171811","8.6911819","0","A"
"82912","Lutherstraße","49.4172861","8.6908681","0","B"
"85601","Friedelsheim","49.4578319","8.2253611","0","1"
"85602","Friedelsheim","49.458095","8.224795","0","2"
"91001","Fußgönheim","49.4664969","8.2877039","0","1"
"91002","Fußgönheim","49.46621","8.2873361","0","2"
"94001","Gönnheim","49.4582119","8.2328889","0","1"
"94002","Gönnheim","49.4578731","8.2312361","0","2"
"102311","Forstquelle","49.38073","8.70622","0","B"
"102312","Forstquelle","49.38135","8.7063189","0","A"
"103311","Ziegelhausen Altes Rathaus","49.4179289","8.7590231","0","A"
"106712","St.-Martin-Straße","49.44572","8.6156881","0","A"
"108111","Redtenbacherstraße","49.362995","8.6814989","0","A"
"108612","Bärenbach Nord","49.4146039","8.7743569","0","A"
"109111","Bärenbach Süd","49.4135111","8.7755069","0","A"
"109411","HITS","49.4150419","8.7366281","0","A"
"110211","Villa Schmeil","49.4158889","8.7321731","0","A"
"110411","Hirtenaue","49.4263319","8.7597781","0","A"
"110611","Schleifengrundweg","49.423895","8.7578461","0","B"
"110711","Hirtenbrunnenweg","49.4226331","8.7563369","0","B"
"110712","Hirtenbrunnenweg","49.4226269","8.7564","0","A"
"110811","Am Bächenbuckel","49.4228961","8.760245","0","B"
"110812","Am Bächenbuckel","49.4231589","8.7607481","0","A"
"110911","Moselbrunnenweg","49.4221831","8.7604961","0","B"
"110912","Moselbrunnenweg","49.4225511","8.7606939","0","A"
"111612","Klingenweg","49.422715","8.7641619","0","A"
"111712","Karl-Christ-Straße","49.42116","8.7608919","0","A"
"111912","Neckarmünzplatz","49.4137619","8.7131731","0","A"
"112011","Am Götzenberg","49.3720211","8.7013689","0","B"
"112012","Am Götzenberg","49.3720861","8.7015761","0","A"
"112111","Boxbergring","49.3782739","8.7042981","0","A"
"112113","Boxbergring","49.3781861","8.7042619","0","B"
"112211","Buchwaldweg","49.3704011","8.7052589","0","A"
"112311","Fernheizwerk","49.3761331","8.7068219","0","A"
"112411","Haselnussweg","49.3745419","8.7026539","0","C"
"112412","Haselnussweg","49.37401","8.7030761","0","B"
"112414","Haselnussweg","49.37408","8.7031211","0","A"
"112511","Im Eichwald","49.37239","8.70622","0","A"
"112611","Louise-Ebert-Zentrum","49.3730039","8.7037319","0","A"
"112612","Louise-Ebert-Zentrum","49.3728281","8.7036511","0","B"
"112711","Emmertsgrund","49.3589169","8.70446","0","A"
"112712","Emmertsgrund","49.3590931","8.7041361","0","B"
"112811","Forum","49.3640769","8.7056811","0","B"
"112812","Forum","49.3640889","8.7055461","0","A"
"112911","Jaspersstraße","49.3613569","8.703435","0","B"
"112912","Jaspersstraße","49.3610061","8.7032739","0","A"
"113011","Mombertplatz","49.3695531","8.704055","0","A"
"113012","Mombertplatz","49.369225","8.7041989","0","D"
"113014","Mombertplatz","49.3690789","8.70428","0","C"
"113016","Mombertplatz","49.3693539","8.7052411","0","B"
"113111","HD Otto-Hahn-Straße","49.36602","8.7047561","0","B"
"113112","HD Otto-Hahn-Straße","49.3658731","8.7050969","0","A"
"113301","Burgstraße","49.4343531","8.6822439","0","A"
"113302","Burgstraße","49.4349719","8.68202","0","B"
"113332","Burgstraße","49.434155","8.6823881","0","D"
"113333","Burgstraße","49.4350431","8.6807081","0","V1"
"113412","Jellinekstrasse","49.3615211","8.7052769","0","A"
"113521","Kapellenweg","49.4247311","8.6870769","0","A"
"113522","Kapellenweg","49.4250519","8.6863669","0","B"
"113542","Kapellenweg","49.4253089","8.6859719","0","V1"
"113601","Hans-Thoma-Platz","49.4274419","8.6829269","0","A"
"113602","Hans-Thoma-Platz","49.4279911","8.6833039","0","B"
"113603","Hans-Thoma-Platz","49.4276519","8.6832319","0","C"
"113632","Hans-Thoma-Platz","49.4276461","8.6834211","0","G"
"113633","Hans-Thoma-Platz","49.4274239","8.682415","0","V1"
"113811","Alois-Link-Platz","49.400225","8.6913439","0","B"
"113812","Alois-Link-Platz","49.3999261","8.691245","0","A"
"113911","Alte Brücke","49.41361","8.71073","0","B"
"113912","Alte Brücke","49.413435","8.7086461","0","A"
"114011","Alter Kohlhof","49.388385","8.7311481","0","B"
"114012","Alter Kohlhof","49.3880869","8.7311661","0","A"
"114121","Bergfriedhof","49.3954419","8.689925","0","B"
"114122","Bergfriedhof","49.3956531","8.6898531","0","A"
"114321","Bethanienkrankenhaus","49.392595","8.6902211","0","B"
"114322","Bethanienkrankenhaus","49.3921211","8.6902119","0","A"
"114405","Betriebshof","49.4076069","8.674725","0","C"
"114411","Betriebshof","49.4076069","8.674725","0","C"
"114421","Betriebshof","49.4078881","8.6764589","0","B"
"114422","Betriebshof","49.4079169","8.675525","0","A"
"114423","Betriebshof","49.4075611","8.6745189","0","E"
"114424","Betriebshof","49.4075139","8.6748331","0","D"
"114426","Betriebshof","49.4072389","8.6748331","0","F"
"114511","Bierhelderhof","49.389935","8.7052681","0","B"
"114512","Bierhelderhof","49.390145","8.705115","0","A"
"114513","Bierhelderhof","49.38994","8.7048819","0","C"
"114601","Bismarckplatz","49.4098639","8.693195","0","A"
"114602","Bismarckplatz","49.40946","8.692925","0","B"
"114611","Bismarckplatz","49.4096711","8.6933019","0","F"
"114612","Bismarckplatz","49.4096711","8.6933019","0","E"
"114613","Bismarckplatz","49.4096711","8.6933019","0","D"
"114614","Bismarckplatz","49.4096711","8.6933019","0","C"
"114615","Bismarckplatz","49.4101381","8.6929069","0","I"
"114616","Bismarckplatz","49.4099919","8.69288","0","H"
"114617","Bismarckplatz","49.4097289","8.6928889","0","G"
"114642","Bismarckplatz","49.4083439","8.6941019","0","V6"
"114645","Bismarckplatz","49.40991","8.6925931","0","V5"
"114712","Blockhaus","49.4012711","8.7131639","0","A"
"114812","Schönauer Abtweg","49.4206811","8.7597961","0","A"
"114911","Rudolf-Diesel-Straße","49.3968339","8.6791539","0","D"
"114912","Rudolf-Diesel-Straße","49.39612","8.6771869","0","C"
"114921","Rudolf-Diesel-Straße","49.396875","8.6790819","0","A"
"114922","Rudolf-Diesel-Straße","49.3959861","8.6777981","0","B"
"115021","Christuskirche","49.401815","8.6850919","0","B"
"115022","Christuskirche","49.4015869","8.6853161","0","A"
"115111","Czernybrücke","49.4061639","8.6714019","0","C"
"115121","Czernybrücke","49.4068531","8.6713211","0","A"
"115122","Czernybrücke","49.4067481","8.6711411","0","B"
"115311","Drei Eichen","49.3802619","8.7236739","0","B"
"115312","Drei Eichen","49.3802269","8.7236481","0","A"
"115511","Feuerbachstraße","49.3935711","8.6865739","0","A"
"115512","Feuerbachstraße","49.393595","8.68643","0","B"
"115513","Feuerbachstraße","49.3937531","8.6858369","0","C"
"115514","Feuerbachstraße","49.3936589","8.6856039","0","D"
"115711","Friedrich-Ebert-Platz","49.4083561","8.6986111","0","B"
"115712","Friedrich-Ebert-Platz","49.4081631","8.7000669","0","A"
"115811","Gneisenaustraße","49.4092911","8.66868","0","A"
"115812","Gneisenaustraße","49.4085019","8.6677361","0","B"
"115911","Hans-Böckler-Straße","49.4054211","8.6926019","0","B"
"115912","Hans-Böckler-Straße","49.4054389","8.6925211","0","A"
"116004","HD Hauptbahnhof","49.404965","8.6757669","0","E"
"116011","HD Hauptbahnhof","49.4042989","8.6786689","0","P"
"116012","HD Hauptbahnhof","49.4043281","8.6770431","0","L"
"116014","HD Hauptbahnhof","49.4044039","8.676755","0","K"
"116015","HD Hauptbahnhof","49.4042989","8.6786689","0","R"
"116021","HD Hauptbahnhof","49.40465","8.6763869","0","B"
"116022","HD Hauptbahnhof","49.4049239","8.6757939","0","D"
"116023","HD Hauptbahnhof","49.4046911","8.6764411","0","C"
"116111","Hirschgasse","49.4159769","8.7160031","0","B"
"116112","Hirschgasse","49.4162919","8.7169731","0","A"
"116311","Kaiserstraße","49.4019369","8.6914789","0","B"
"116312","Kaiserstraße","49.4025861","8.6916939","0","A"
"116611","S-Bahnhof Altstadt","49.4150131","8.72","0","A"
"116612","S-Bahnhof Altstadt","49.4150481","8.720225","0","D"
"116614","S-Bahnhof Altstadt","49.4151","8.72045","0","C"
"116616","S-Bahnhof Altstadt","49.4143931","8.7185269","0","E"
"116711","MPI Kernphysik","49.3890281","8.70737","0","B"
"116712","MPI Kernphysik","49.3888939","8.7076581","0","A"
"116821","Seegarten","49.4071219","8.6923681","0","A"
"116822","Seegarten","49.407005","8.6911289","0","B"
"116911","Kohlhof Fachklinik","49.3895719","8.7352361","0","B"
"116912","Kohlhof Fachklinik","49.389285","8.7351461","0","A"
"117011","Stadthalle","49.4128739","8.7026989","0","B"
"117012","Stadthalle","49.4127269","8.7018361","0","A"
"117111","Königstuhl","49.402715","8.7277711","0","A"
"117411","Marstallstraße","49.413335","8.7059419","0","A"
"117412","Marstallstraße","49.4132769","8.7055639","0","B"
"117414","Marstallstraße","49.4130781","8.7054119","0","C"
"117511","MPI Astronomie","49.3965061","8.7237189","0","A"
"117541","MPI Astronomie","49.3964419","8.724995","0","V"
"117611","Molkenkur","49.4070111","8.715015","0","B"
"117612","Molkenkur","49.4070169","8.7149611","0","A"
"117711","Berthold-Mogel-Straße","49.3899811","8.6861431","0","B"
"117712","Berthold-Mogel-Straße","49.3900869","8.686035","0","A"
"117741","Berthold-Mogel-Straße","49.3896419","8.6868881","0","B"
"117811","HD Neckarspitze","49.4101089","8.6639281","0","A"
"117812","HD Neckarspitze","49.4098111","8.664475","0","B"
"117911","Oberer Fauler Pelz","49.4092211","8.7080619","0","B"
"117912","Oberer Fauler Pelz","49.4096469","8.709355","0","A"
"118001","Ochsenkopf","49.409425","8.653085","0","1"
"118002","Ochsenkopf","49.40956","8.6520881","0","2"
"118111","Peterskirche","49.4090161","8.7050519","0","A"
"118112","Peterskirche","49.4088819","8.7055111","0","C"
"118113","Peterskirche","49.409045","8.705295","0","B"
"118211","Posseltslust","49.3846481","8.7334569","0","B"
"118212","Posseltslust","49.3846311","8.7335831","0","A"
"118411","Rathaus/Bergbahn","49.4112139","8.711395","0","B"
"118412","Rathaus/Bergbahn","49.4114589","8.7119419","0","A"
"118521","HD Rheinstraße","49.3899989","8.6903469","0","B"
"118522","HD Rheinstraße","49.3898761","8.6902931","0","A"
"118611","Rohrbacher Grenzweg","49.3960619","8.6970211","0","B"
"118612","Rohrbacher Grenzweg","49.3961961","8.6969589","0","A"
"118721","Römerkreis Süd","49.4047611","8.6846611","0","B"
"118722","Römerkreis Süd","49.4044161","8.6845711","0","A"
"118812","Im Neulich","49.4300531","8.6994381","0","A"
"118921","Campus Bergheim","49.4079231","8.6852711","0","B"
"118922","Campus Bergheim","49.4078819","8.6849661","0","A"
"119011","HD Schloss","49.4089581","8.7118531","0","B"
"119042","HD Schloss","49.408905","8.7128139","0","A"
"119111","Kühruhweg","49.3938339","8.7086639","0","B"
"119112","Kühruhweg","49.3937819","8.7085561","0","A"
"119211","St. Vincentius-Krankenhaus","49.4120261","8.6973269","0","B"
"119212","St. Vincentius-Krankenhaus","49.41202","8.6972639","0","A"
"119321","Stadtbücherei","49.406205","8.6868789","0","A"
"119322","Stadtbücherei","49.4060989","8.6859539","0","B"
"119402","Stadtwerke","49.4049131","8.6813189","0","B"
"119412","Stadtwerke","49.405515","8.68281","0","D"
"119413","Stadtwerke","49.4050761","8.6811031","0","C"
"119421","Stadtwerke","49.40503","8.6823611","0","A"
"119511","Sternwarte","49.4006861","8.7273219","0","C"
"119512","Sternwarte","49.4006219","8.7274469","0","A"
"119513","Sternwarte","49.4007969","8.7273489","0","B"
"119621","Altes Hallenbad","49.4084139","8.6884781","0","B"
"119622","Altes Hallenbad","49.4083789","8.6880381","0","A"
"119811","Universitätsplatz","49.4110561","8.705825","0","A"
"119921","Volkshochschule","49.40783","8.6807711","0","B"
"119922","Volkshochschule","49.40787","8.6804389","0","A"
"120001","Albert-Fritz-Straße","49.3830931","8.6723631","0","A"
"120002","Albert-Fritz-Straße","49.3827539","8.6721019","0","B"
"120111","Alfred-Jost-Straße","49.37887","8.6591219","0","A"
"120112","Alfred-Jost-Straße","49.3785961","8.6590411","0","B"
"120311","S-Bahnhof Kirchheim/Rohrbach","49.3787769","8.67521","0","A"
"120312","S-Bahnhof Kirchheim/Rohrbach","49.3787769","8.6753","0","B"
"120412","Agnesistraße","49.4060761","8.6615381","0","A"
"120511","Gregor-Mendel-Realschule","49.3868589","8.6666581","0","B"
"120512","Gregor-Mendel-Realschule","49.3868711","8.6665869","0","A"
"120612","Bauhaus","49.4070811","8.6548189","0","A"
"120701","Kirchheim Friedhof","49.3758761","8.6593281","0","A"
"120811","Hagellachstraße","49.3781861","8.6724439","0","B"
"120812","Hagellachstraße","49.3782681","8.6727669","0","A"
"120912","Harbigweg","49.3925661","8.6690661","0","A"
"120942","Harbigweg","49.3919339","8.6697131","0","V2"
"121011","Pleikartsförster Hof","49.390005","8.6608281","0","C"
"121012","Pleikartsförster Hof","49.3898939","8.6608461","0","D"
"121111","Königsberger Straße","49.3842619","8.6664519","0","B"
"121112","Königsberger Straße","49.3842861","8.6660211","0","A"
"121142","Königsberger Straße","49.3840231","8.6666669","0","V2"
"121311","Mathilde-Vogt-Haus","49.3811161","8.660685","0","B"
"121312","Mathilde-Vogt-Haus","49.38114","8.6604061","0","A"
"121401","HD Hauptbahnhof West","49.4053689","8.672785","0","F"
"121511","Obere Seegasse","49.3773261","8.6688769","0","B"
"121512","Obere Seegasse","49.3772269","8.6691919","0","A"
"121601","Odenwaldstraße","49.3791511","8.66956","0","B"
"121602","Odenwaldstraße","49.3790689","8.6691111","0","A"
"121801","Ilse-Krall-Straße","49.3863731","8.673495","0","B"
"121802","Ilse-Krall-Straße","49.3863331","8.6733781","0","A"
"121811","Ilse-Krall-Straße","49.38521","8.673135","0","D"
"121901","Kirchheim Rathaus","49.3777119","8.6662811","0","A"
"121902","Kirchheim Rathaus","49.377215","8.6649611","0","B"
"121913","Kirchheim Rathaus","49.3773319","8.6653919","0","D"
"121914","Kirchheim Rathaus","49.37711","8.6645739","0","C"
"121916","Kirchheim Rathaus","49.3774611","8.6656519","0","E"
"121917","Kirchheim Rathaus","49.3774431","8.6663619","0","G"
"121918","Kirchheim Rathaus","49.3774611","8.66603","0","H"
"122011","Neckarwiese","49.4123831","8.6823611","0","B"
"122012","Neckarwiese","49.4125231","8.6824781","0","A"
"122311","Alte Brücke Nord","49.4152639","8.7089061","0","B"
"122312","Alte Brücke Nord","49.4152811","8.7092031","0","A"
"122411","Bergstraße","49.4137681","8.6943439","0","B"
"122412","Bergstraße","49.413715","8.6943439","0","A"
"122521","Blumenthalstraße","49.4215581","8.6890619","0","A"
"122522","Blumenthalstraße","49.4220719","8.6889461","0","B"
"122601","Technologiepark","49.4189569","8.6761989","0","A"
"122611","Technologiepark","49.4189869","8.6750131","0","E"
"122613","Technologiepark","49.4195531","8.6754711","0","C"
"122622","Technologiepark","49.4192439","8.6762969","0","B"
"122631","Technologiepark","49.4188931","8.6760639","0","F"
"122632","Technologiepark","49.4194131","8.6765039","0","G"
"122711","Olympiastützpunkt","49.4224169","8.6583581","0","A"
"122712","Olympiastützpunkt","49.4225919","8.6583039","0","B"
"122801","Bunsengymnasium","49.4161639","8.67636","0","A"
"122802","Bunsengymnasium","49.41766","8.6763511","0","B"
"122811","Bunsengymnasium","49.4169239","8.6768811","0","C"
"122812","Bunsengymnasium","49.4170519","8.6768","0","D"
"122813","Bunsengymnasium","49.4169531","8.6754981","0","E"
"122831","Bunsengymnasium","49.416485","8.67619","0","F"
"122901","Jahnstraße","49.4127919","8.676585","0","A"
"122902","Jahnstraße","49.41316","8.6766839","0","B"
"122911","Jahnstraße","49.4128681","8.6754711","0","C"
"122912","Jahnstraße","49.412675","8.6758931","0","D"
"122913","Jahnstraße","49.4126161","8.6774561","0","G"
"122914","Jahnstraße","49.4133881","8.6768269","0","F"
"123011","Fußballcampus HD","49.4253561","8.6567681","0","A"
"123012","Fußballcampus HD","49.42535","8.6568311","0","B"
"123111","Jugendherberge","49.4173789","8.6610619","0","A"
"123112","Jugendherberge","49.4173389","8.6611339","0","B"
"123321","Kußmaulstraße","49.4185311","8.6907239","0","A"
"123322","Kußmaulstraße","49.4190039","8.6905539","0","B"
"123411","Marlene-Dietrich-Platz","49.386935","8.6824781","0","B"
"123412","Marlene-Dietrich-Platz","49.3865311","8.6823969","0","A"
"123511","Mark-Twain-Center","49.3895019","8.6842739","0","B"
"123512","Mark-Twain-Center","49.3895781","8.68484","0","A"
"123611","Mönchhofschule","49.4173561","8.68723","0","A"
"123612","Mönchhofschule","49.4174031","8.6857211","0","B"
"123811","Pädagogische Hochschule","49.4194539","8.6698831","0","A"
"123812","Pädagogische Hochschule","49.4194719","8.6697669","0","B"
"124011","Schwimmbad","49.4201439","8.6594","0","A"
"124012","Schwimmbad","49.4203311","8.6593731","0","B"
"124111","Sportzentrum Nord","49.4264661","8.6605681","0","A"
"124112","Sportzentrum Nord","49.42639","8.6600739","0","B"
"124211","Studentenwohnheim","49.4187881","8.66311","0","A"
"124212","Studentenwohnheim","49.4187289","8.6626431","0","B"
"124311","Zoo","49.4152581","8.6634781","0","A"
"124511","Hans-Bunte-Straße","49.4070931","8.6404731","0","A"
"124512","Hans-Bunte-Straße","49.4070761","8.64041","0","B"
"124611","Med.Kl./Chirurgie/Zoo","49.414615","8.6663619","0","B"
"124612","Med.Kl./Chirurgie/Zoo","49.4148311","8.6655","0","A"
"124712","Im Buschgewann","49.3974419","8.6486111","0","A"
"124811","Ziegelhausen Friedhof","49.4196939","8.76082","0","B"
"124812","Ziegelhausen Friedhof","49.4195419","8.7609989","0","A"
"124912","Im Dornbusch","49.395875","8.6491231","0","A"
"125111","Im Schaffner","49.3982719","8.64226","0","A"
"125201","Henkel-Teroson-Straße","49.4057369","8.6527611","0","B"
"125202","Henkel-Teroson-Straße","49.4057311","8.6523661","0","A"
"125212","Henkel-Teroson-Straße","49.4066661","8.6516031","0","C"
"125311","Im Wellengewann","49.409355","8.6407419","0","A"
"125312","Im Wellengewann","49.40956","8.6406969","0","B"
"125511","Kurpfalzring Süd","49.4026269","8.6409669","0","G"
"125512","Kurpfalzring Süd","49.4024631","8.6408769","0","H"
"125601","Marktstraße","49.4035861","8.6476319","0","B"
"125602","Marktstraße","49.403545","8.64721","0","A"
"125612","Marktstraße","49.40358","8.6471019","0","C"
"125711","Gleisdreieck","49.3974181","8.6847681","0","A"
"125812","HD Schützenstraße","49.3993361","8.6480361","0","A"
"125911","Steinhofweg","49.3941561","8.646195","0","A"
"126021","Brückenstraße","49.4152411","8.69209","0","A"
"126022","Brückenstraße","49.4157311","8.6921169","0","B"
"126101","Kranichweg/Stotz","49.40213","8.6420361","0","A"
"126102","Kranichweg/Stotz","49.4022819","8.64235","0","B"
"126111","Kranichweg/Stotz","49.4022361","8.6418739","0","C"
"126112","Kranichweg/Stotz","49.40237","8.6435","0","E"
"126113","Kranichweg/Stotz","49.4013589","8.6413261","0","D"
"126211","Baden-Badener Straße","49.3767711","8.6824689","0","A"
"126321","Eichendorffplatz","49.3836369","8.6904639","0","B"
"126322","Eichendorffplatz","49.383245","8.6903469","0","A"
"126412","Englerstraße","49.3669611","8.6823339","0","A"
"126511","Erlenweg","49.377005","8.6772319","0","B"
"126512","Erlenweg","49.3778639","8.6773389","0","A"
"126711","HD Freiburger Straße","49.37401","8.68634","0","E"
"126712","HD Freiburger Straße","49.373875","8.686475","0","D"
"126713","HD Freiburger Straße","49.3734489","8.6879389","0","C"
"126714","HD Freiburger Straße","49.3743611","8.6876611","0","F"
"126721","HD Freiburger Straße","49.3737231","8.6880739","0","A"
"126722","HD Freiburger Straße","49.3733839","8.68802","0","B"
"126912","Hertzstraße","49.3666569","8.6848669","0","B"
"127011","Im Breitspiel","49.3649431","8.6866731","0","A"
"127012","Im Breitspiel","49.3653231","8.68705","0","C"
"127211","Kolbenzeil","49.3738461","8.6819211","0","A"
"127212","Kolbenzeil","49.3737639","8.6816331","0","B"
"127321","Markscheide","49.3871861","8.6904911","0","B"
"127322","Markscheide","49.38611","8.6904819","0","A"
"127401","Ortenauer Straße","49.3768639","8.6877869","0","A"
"127402","Ortenauer Straße","49.3762619","8.6877331","0","B"
"127412","Ortenauer Straße","49.3777361","8.6873289","0","C"
"127511","HD Rastatter Straße","49.3739631","8.6786869","0","B"
"127512","HD Rastatter Straße","49.3736711","8.6794319","0","A"
"127611","Rohrbach Markt","49.3805311","8.6873469","0","C"
"127612","Rohrbach Markt","49.380485","8.68714","0","D"
"127621","Rohrbach Markt","49.3805311","8.6882989","0","A"
"127622","Rohrbach Markt","49.3804031","8.6879569","0","B"
"127711","Saarstraße","49.38611","8.6865831","0","B"
"127712","Saarstraße","49.3851811","8.68652","0","A"
"127801","Rohrbach Süd","49.3658439","8.6887389","0","B"
"127802","Rohrbach Süd","49.365575","8.6887119","0","A"
"127811","Rohrbach Süd","49.3654811","8.688865","0","C"
"127812","Rohrbach Süd","49.3659031","8.688595","0","D"
"127911","Tullastraße","49.3653581","8.6796569","0","A"
"128011","Adlerüberfahrt","49.4160531","8.7550531","0","B"
"128012","Adlerüberfahrt","49.4161231","8.7561219","0","A"
"128211","Im Grund","49.41413","8.7703419","0","B"
"128212","Im Grund","49.4137561","8.7710969","0","A"
"128214","Im Grund","49.41354","8.7711769","0","C"
"128215","Im Grund","49.4136281","8.7711861","0","D"
"128311","Jägerhaus","49.41534","8.7472369","0","B"
"128312","Jägerhaus","49.4152989","8.7478839","0","A"
"128411","S-Bahnhof Orthopädie","49.4105239","8.7750761","0","A"
"128412","S-Bahnhof Orthopädie","49.41039","8.7748511","0","B"
"128511","Rombachweg","49.41579","8.7424761","0","B"
"128512","Rombachweg","49.4157611","8.7420811","0","A"
"128611","Teufelskanzelweg","49.4171339","8.7317139","0","A"
"128711","S-Bahnhof Schlierbach/Ziegelhausen","49.4153519","8.7625811","0","D"
"128712","S-Bahnhof Schlierbach/Ziegelhausen","49.4155739","8.7611339","0","C"
"128713","S-Bahnhof Schlierbach/Ziegelhausen","49.4153931","8.7612239","0","B"
"128714","S-Bahnhof Schlierbach/Ziegelhausen","49.4154219","8.7610439","0","A"
"128811","Carl-Bosch-Museum","49.41572","8.7291","0","A"
"129011","Bonhoeffer-Straße","49.4119439","8.6587981","0","A"
"129012","Bonhoeffer-Straße","49.4123831","8.65816","0","B"
"129111","Wieblingen Nord","49.432665","8.6419731","0","A"
"129112","Wieblingen Nord","49.4326881","8.6421069","0","B"
"129211","Wieblingen Evangelische Kirche","49.4260739","8.64747","0","A"
"129212","Wieblingen Evangelische Kirche","49.426805","8.6471289","0","B"
"129214","Wieblingen Evangelische Kirche","49.4269861","8.64703","0","C"
"129411","Grenzhöfer Weg","49.4261389","8.644075","0","A"
"129412","Grenzhöfer Weg","49.4265011","8.6449731","0","B"
"129511","Hermann-Treiber-Straße","49.4196469","8.6518181","0","A"
"129512","Hermann-Treiber-Straße","49.4197989","8.6518719","0","B"
"129611","HD Käfertaler Straße","49.4301589","8.6448381","0","A"
"129612","HD Käfertaler Straße","49.4302811","8.644775","0","B"
"129811","Elisabeth-von-Thadden-Platz","49.4241111","8.649015","0","A"
"129812","Elisabeth-von-Thadden-Platz","49.4239239","8.6492669","0","B"
"129911","Lerchenbuckel","49.4161519","8.6535519","0","A"
"129912","Lerchenbuckel","49.4168131","8.653265","0","B"
"130011","Finanzamt","49.4219611","8.6425031","0","A"
"130012","Finanzamt","49.4221889","8.642485","0","B"
"130111","Maltesergasse","49.4289489","8.6457011","0","A"
"130112","Maltesergasse","49.4289261","8.6457911","0","B"
"130201","Wieblingen Mitte","49.4233461","8.64606","0","1"
"130202","Wieblingen Mitte","49.4238419","8.6458439","0","2"
"130211","Wieblingen Mitte","49.4235331","8.6457819","0","A"
"130212","Wieblingen Mitte","49.4235039","8.6462761","0","B"
"130311","Rhein-Neckar-Werkstätten","49.3628139","8.675345","0","C"
"130401","Wieblingen Taubenfeld","49.42833","8.6427989","0","1"
"130402","Wieblingen Taubenfeld","49.42878","8.6424311","0","2"
"130611","HD Waldorfschule","49.438355","8.6338069","0","A"
"130712","Textilmuseum","49.4169119","8.7610981","0","A"
"130811","Köpfel","49.4231239","8.7428269","0","A"
"130911","Fürstendamm","49.4279619","8.7495369","0","B"
"130912","Fürstendamm","49.4286281","8.7495369","0","A"
"131011","Grüner Baum","49.4375539","8.7519889","0","B"
"131012","Grüner Baum","49.4377531","8.7520611","0","A"
"131041","Grüner Baum","49.4369106","8.7516933","0","n/a"
"131042","Grüner Baum","49.4384178","8.7521708","0","n/a"
"131111","Haarlaß","49.4201489","8.7291269","0","B"
"131112","Haarlaß","49.4202081","8.730295","0","A"
"131211","Hausackerweg","49.4182331","8.7276089","0","B"
"131212","Hausackerweg","49.4182681","8.7277261","0","A"
"131213","Hausackerweg","49.418215","8.7277081","0","C"
"131311","Ziegelhausen Kirche","49.417835","8.7611881","0","B"
"131312","Ziegelhausen Kirche","49.4178289","8.7611881","0","A"
"131411","Heidebuckelweg","49.4498261","8.7541539","0","B"
"131412","Heidebuckelweg","49.4503569","8.7544239","0","A"
"131511","Kleingemünder Straße","49.4175311","8.7626519","0","B"
"131512","Kleingemünder Straße","49.4175369","8.76285","0","D"
"131514","Kleingemünder Straße","49.4173911","8.7632089","0","C"
"131611","Wielandtstraße","49.4173439","8.68157","0","A"
"131612","Wielandtstraße","49.4174439","8.6820561","0","B"
"131711","Kreuzgrundweg","49.4317711","8.7474619","0","B"
"131712","Kreuzgrundweg","49.4316131","8.7476511","0","A"
"131811","Langer Kirschbaum","49.4590761","8.7512439","0","B"
"131812","Langer Kirschbaum","49.4590231","8.7513519","0","A"
"131911","Löwen","49.4441019","8.7537139","0","B"
"131912","Löwen","49.4446281","8.7541539","0","A"
"132011","Mittlerer Rainweg","49.4261331","8.74659","0","B"
"132012","Mittlerer Rainweg","49.4260981","8.7467069","0","A"
"132111","Mühldamm","49.4253619","8.7515489","0","B"
"132112","Mühldamm","49.4252739","8.7519","0","A"
"132211","Neckarhelle","49.4173389","8.7492939","0","B"
"132212","Neckarhelle","49.4174669","8.748145","0","A"
"132311","Neckarschule","49.4192669","8.7568131","0","B"
"132312","Neckarschule","49.4193431","8.75693","0","A"
"132411","Neuer Weg","49.4173561","8.7525011","0","B"
"132412","Neuer Weg","49.41745","8.7529419","0","A"
"132511","Rainweg","49.4302169","8.74677","0","B"
"132512","Rainweg","49.4301531","8.7467339","0","A"
"132611","Schweizertalstraße","49.4482261","8.7532739","0","B"
"132612","Schweizertalstraße","49.44836","8.7533819","0","A"
"132711","Stift Neuburg","49.41932","8.7352269","0","B"
"132712","Stift Neuburg","49.4191789","8.73546","0","A"
"132811","Steinbacher Tal","49.4225339","8.7537861","0","B"
"132812","Steinbacher Tal","49.4221769","8.7546031","0","A"
"132911","Stiftsmühle","49.417455","8.7438961","0","B"
"132912","Stiftsmühle","49.4174789","8.7440569","0","A"
"133001","Gneisenaustraße Süd","49.4065961","8.6672511","0","1"
"133002","Gneisenaustraße Süd","49.406585","8.6673861","0","2"
"133101","Berufsschule","49.4084369","8.6612689","0","1"
"133102","Berufsschule","49.4086239","8.6604419","0","2"
"133211","Augustinum","49.3629361","8.7035789","0","B"
"133212","Augustinum","49.362895","8.70348","0","A"
"133301","Heiligenbergschule","49.4233169","8.6790281","0","A"
"133302","Heiligenbergschule","49.4236381","8.6797019","0","B"
"133331","Heiligenbergschule","49.4236319","8.6792261","0","C"
"133411","Sandwingert","49.4189689","8.6443711","0","A"
"133412","Sandwingert","49.4187939","8.64438","0","B"
"133511","Im Heimgarten","49.3954719","8.64306","0","B"
"133611","Kleingemünder Straße Ost","49.4164739","8.7655719","0","B"
"133612","Kleingemünder Straße Ost","49.41645","8.7655989","0","A"
"133711","Kirschnerstraße","49.4137211","8.6737281","0","A"
"133712","Kirschnerstraße","49.4137619","8.6734139","0","B"
"133812","Gaisbergstraße","49.4069","8.6935181","0","A"
"134011","Villa Bosch","49.4154389","8.7344989","0","A"
"134112","Rombachweg Süd","49.413405","8.738425","0","A"
"134412","Jettaweg","49.4132361","8.743105","0","A"
"134512","Wolfsbrunnensteige","49.4131781","8.7449469","0","A"
"134911","Schulbergweg","49.4184719","8.7636411","0","B"
"134912","Schulbergweg","49.418525","8.763515","0","A"
"136411","Peterstaler Straße","49.4346281","8.7490881","0","B"
"136412","Peterstaler Straße","49.4346861","8.7492139","0","A"
"144411","Heiligkreuzsteinach Marktplatz","49.4847661","8.79669","0","D"
"144412","Heiligkreuzsteinach Marktplatz","49.4848011","8.7967339","0","A"
"144413","Heiligkreuzsteinach Marktplatz","49.484825","8.7968061","0","B"
"144911","Schönauer Straße","49.417695","8.7654189","0","B"
"144912","Schönauer Straße","49.4175261","8.7654639","0","A"
"145411","S-Bahnhof Pfaffengrund/Wieblingen","49.41212","8.6412631","0","A"
"145412","S-Bahnhof Pfaffengrund/Wieblingen","49.412055","8.641155","0","B"
"145511","Steigerweg","49.396875","8.6949011","0","B"
"145512","Steigerweg","49.3969389","8.6947311","0","A"
"145721","S-Bahnhof Weststadt/Südstadt","49.3985639","8.6893861","0","B"
"145722","S-Bahnhof Weststadt/Südstadt","49.398225","8.68935","0","A"
"145743","S-Bahnhof Weststadt/Südstadt","49.399225","8.6891431","0","V3"
"154012","Rastatter Straße West","49.375285","8.6769439","0","A"
"154212","Ludwig-Guttmann-Str.","49.4146211","8.6550069","0","B"
"156212","Am Grünen Hag","49.4140781","8.7680869","0","B"
"156311","Ärztehaus","49.40365","8.6343819","0","B"
"156312","Ärztehaus","49.4036911","8.6349839","0","A"
"158101","Großsachsen Bahnhof","49.5140419","8.6566689","0","1"
"158102","Großsachsen Bahnhof","49.514555","8.6568939","0","2"
"158501","Leutershausen Bahnhof","49.4976439","8.6565611","0","1"
"158502","Leutershausen Bahnhof","49.498205","8.656615","0","2"
"164112","Heinrich-Vetter-Stift","49.48106","8.5545581","0","n/a"
"164312","Ilvesheim Rathaus","49.4707","8.565975","0","n/a"
"164412","Neue Schulstraße","49.4736131","8.5637561","0","n/a"
"164512","Ilvesheim Uferstraße","49.4763389","8.558645","0","n/a"
"165412","Ilvesheim West","49.4816381","8.5506861","0","n/a"
"168111","Wendestelle Hbw","49.4527231","8.7511811","0","A"
"169301","SRH Campus","49.4151589","8.6494289","0","1"
"169302","SRH Campus","49.4156961","8.6493569","0","2"
"186312","Lagerhausstraße","49.4675711","8.4494189","0","A"
"187901","Leimen Friedhof","49.3432631","8.6935181","0","B"
"188201","Johannes-Reidel-Straße","49.3538089","8.6891969","0","B"
"188202","Johannes-Reidel-Straße","49.3534461","8.6892331","0","A"
"188401","Moltkestraße","49.3455169","8.6925211","0","B"
"188402","Moltkestraße","49.3451889","8.692665","0","A"
"188601","Georgi-Marktplatz","49.3495489","8.6888919","0","B"
"188602","Georgi-Marktplatz","49.3491981","8.6888831","0","A"
"188901","Kurpfalz-Centrum","49.3481969","8.6894131","0","A"
"188902","Kurpfalz-Centrum","49.34777","8.6897089","0","B"
"189001","Zementwerk","49.3577589","8.6893411","0","B"
"189002","Zementwerk","49.3574839","8.6893681","0","A"
"198111","Pleikartsförster Straße","49.383145","8.662715","0","A"
"198112","Pleikartsförster Straße","49.3825839","8.66267","0","B"
"200601","Kurpfalzbrücke Ost","49.4927489","8.4720561","0","F"
"200602","Kurpfalzbrücke Ost","49.4924339","8.4727481","0","n/a"
"202111","Anglerstraße","49.5323181","8.3829261","0","A"
"202212","Bruderweg","49.5259561","8.39163","0","A"
"202311","Deichstraße","49.5293789","8.3863839","0","A"
"202411","Edigheim Kirche","49.5297111","8.3926539","0","B"
"202412","Edigheim Kirche","49.5301369","8.3921239","0","A"
"202511","Im Zinkig","49.5245981","8.3859889","0","A"
"202611","Kranichstraße","49.53606","8.3851531","0","B"
"202612","Kranichstraße","49.5362119","8.3851531","0","A"
"202711","Rüdigerstraße","49.5282011","8.394945","0","B"
"202712","Rüdigerstraße","49.5283531","8.394855","0","A"
"202811","Wolfsgrube","49.5249881","8.3888539","0","A"
"202812","Wolfsgrube","49.5254961","8.3884319","0","B"
"202921","Ebertpark/Fichtestraße","49.4914419","8.4212569","0","A"
"202922","Ebertpark/Fichtestraße","49.4917631","8.4208881","0","B"
"203021","Kreuzstraße","49.4977261","8.41292","0","A"
"203022","Kreuzstraße","49.4974931","8.4132531","0","B"
"203101","Friesenheim Ost","49.5014311","8.4216519","0","A"
"203102","Friesenheim Ost","49.5015531","8.4214719","0","B"
"203111","Friesenheim Ost","49.50139","8.4214989","0","D"
"203112","Friesenheim Ost","49.5010811","8.4208161","0","C"
"203221","Hagellochstraße","49.4992431","8.4154889","0","A"
"203222","Hagellochstraße","49.4992019","8.41619","0","B"
"203311","Lagewiesenstraße","49.4936131","8.4111511","0","B"
"203312","Lagewiesenstraße","49.4936131","8.4103961","0","A"
"203501","Rheinfeldstraße","49.4991789","8.425065","0","A"
"203502","Rheinfeldstraße","49.4995","8.4248769","0","B"
"203511","Rheinfeldstraße","49.4992261","8.4247961","0","E"
"203512","Rheinfeldstraße","49.5000019","8.4245619","0","D"
"203611","Riedsaumpark","49.495305","8.4046919","0","A"
"203701","Rottstückerweg","49.5027139","8.4160819","0","A"
"203702","Rottstückerweg","49.5029239","8.4154619","0","B"
"203711","Rottstückerweg","49.5026681","8.4159931","0","D"
"203712","Rottstückerweg","49.5029589","8.4156239","0","C"
"203911","Saarbrücker Straße","49.49286","8.4051319","0","B"
"203912","Saarbrücker Straße","49.4929361","8.4049881","0","A"
"204001","Schopenhauerstraße","49.4967461","8.4269161","0","A"
"204002","Schopenhauerstraße","49.4970261","8.4268531","0","B"
"204024","Schopenhauerstraße","49.4965011","8.4267269","0","D"
"204035","Schopenhauerstraße","49.4960581","8.4288111","0","V1"
"204121","Schwalbenweg","49.4933211","8.41858","0","A"
"204122","Schwalbenweg","49.49394","8.4179419","0","B"
"204211","Sternstraße","49.4959289","8.4155161","0","D"
"204212","Sternstraße","49.49576","8.41487","0","C"
"204221","Sternstraße","49.4954039","8.4156961","0","A"
"204222","Sternstraße","49.4956669","8.415445","0","B"
"204311","Abteistraße","49.46781","8.4072969","0","B"
"204312","Abteistraße","49.4683761","8.4071889","0","A"
"204411","Hochfeldstraße","49.466175","8.4081319","0","D"
"204412","Hochfeldstraße","49.4663389","8.4081319","0","C"
"204413","Hochfeldstraße","49.4657611","8.408995","0","A"
"204414","Hochfeldstraße","49.4658839","8.4085539","0","B"
"204416","Hochfeldstraße","49.4654981","8.4077461","0","F"
"204511","Kallstadter Straße","49.4643539","8.4009189","0","B"
"204512","Kallstadter Straße","49.464225","8.401485","0","A"
"204611","Königsbacher Straße","49.4622989","8.40047","0","B"
"204612","Königsbacher Straße","49.4607281","8.4019611","0","A"
"204711","Leininger Straße","49.4593969","8.4025719","0","B"
"204712","Leininger Straße","49.4587719","8.4029939","0","A"
"204811","Marienkrankenhaus","49.459665","8.40974","0","A"
"204812","Marienkrankenhaus","49.459555","8.4088781","0","B"
"204911","Von-Kieffer-Straße","49.4547611","8.4007031","0","B"
"204912","Von-Kieffer-Straße","49.4548419","8.400685","0","A"
"205011","Pommernstraße","49.4547661","8.4055631","0","A"
"205012","Pommernstraße","49.4542531","8.4058511","0","B"
"205111","Schlesierstraße","49.4520161","8.4052039","0","A"
"205112","Schlesierstraße","49.4519581","8.40515","0","B"
"205113","Schlesierstraße","49.4524481","8.4043589","0","C"
"205114","Schlesierstraße","49.4525881","8.4039639","0","D"
"205211","Volkshaus","49.4628181","8.4098931","0","B"
"205212","Volkshaus","49.4629939","8.4097761","0","A"
"205301","Ammoniakstraße","49.504925","8.410665","0","A"
"205302","Ammoniakstraße","49.5053739","8.4102431","0","B"
"205311","Ammoniakstraße","49.5049489","8.4103419","0","C"
"205312","Ammoniakstraße","49.505275","8.4104861","0","D"
"206001","BASF","49.4944411","8.4336889","0","A"
"206002","BASF","49.4950361","8.4328719","0","B"
"206011","BASF","49.4958119","8.4302311","0","D"
"206012","BASF","49.4954619","8.4323689","0","C"
"206013","BASF","49.49471","8.4306711","0","E"
"206014","BASF","49.49478","8.4310211","0","F"
"206111","Edigheim Friedhof","49.53016","8.3943069","0","B"
"206112","Edigheim Friedhof","49.5303411","8.3941189","0","A"
"206311","BASF Tor 12","49.5212161","8.4134411","0","B"
"206312","BASF Tor 12","49.5212161","8.4135761","0","A"
"206641","Berliner Platz","49.4815561","8.45003","0","V1"
"206711","Bürgermeister-Krafft-Platz","49.4734319","8.4505961","0","B"
"206712","Bürgermeister-Krafft-Platz","49.4731511","8.4502089","0","A"
"206801","Bürgermeister-Kutterer-Straße","49.4778911","8.4415861","0","A"
"206802","Bürgermeister-Kutterer-Straße","49.4775231","8.4410289","0","B"
"206811","Bürgermeister-Kutterer-Straße","49.4782589","8.4422681","0","C"
"206812","Bürgermeister-Kutterer-Straße","49.4777981","8.4412531","0","D"
"206911","BBS Franz-Zang-Straße","49.4703381","8.4208881","0","A"
"206912","BBS Franz-Zang-Straße","49.46931","8.4200889","0","C"
"206914","BBS Franz-Zang-Straße","49.4683881","8.4200711","0","B"
"207201","Ebertpark","49.489925","8.4176181","0","A"
"207311","LU Feierabendhaus","49.4927489","8.4279219","0","B"
"207312","LU Feierabendhaus","49.4926561","8.4278589","0","A"
"207401","Gartenstraße","49.488595","8.4410019","0","A"
"207402","Gartenstraße","49.4891311","8.4408131","0","B"
"207511","Goerdelerplatz","49.4893119","8.4316861","0","B"
"207512","Goerdelerplatz","49.4901181","8.4310031","0","A"
"207611","LU Hochschule","49.47262","8.421885","0","B"
"207612","LU Hochschule","49.4741089","8.42246","0","A"
"207811","Halberg","49.47715","8.4511081","0","B"
"207812","Halberg","49.4767881","8.4510811","0","A"
"207921","LU Klinikum","49.490415","8.4227031","0","A"
"207922","LU Klinikum","49.4902231","8.4230531","0","B"
"208001","LU Hauptbahnhof","49.4787261","8.4350369","0","2"
"208002","LU Hauptbahnhof","49.4792739","8.4349469","0","1"
"208003","LU Hauptbahnhof","49.4787369","8.4348481","0","4"
"208004","LU Hauptbahnhof","49.4791869","8.4347761","0","3"
"208011","LU Hauptbahnhof","49.47872","8.4346331","0","B"
"208012","LU Hauptbahnhof","49.4785161","8.4346769","0","A"
"208013","LU Hauptbahnhof","49.4794961","8.4352161","0","C"
"208031","LU Hauptbahnhof","49.4777389","8.4356661","0","n/a"
"208121","LU Hauptfriedhof","49.4839261","8.4240589","0","A"
"208122","LU Hauptfriedhof","49.4840781","8.4232869","0","B"
"208141","LU Hauptfriedhof","49.4842531","8.4218939","0","V1"
"208142","LU Hauptfriedhof","49.48434","8.4217419","0","V2"
"208301","Heinrich-Pesch-Haus","49.4837131","8.4137711","0","A"
"208302","Heinrich-Pesch-Haus","49.4835989","8.4131","0","B"
"208401","Hemshofstraße","49.49188","8.4372019","0","A"
"208402","Hemshofstraße","49.4923411","8.4366719","0","B"
"208602","Kaiser-Wilhelm-Straße","49.4815039","8.447955","0","B"
"208612","Kaiser-Wilhelm-Straße","49.4811011","8.4476219","0","C"
"208621","Kaiser-Wilhelm-Straße","49.4816669","8.4489519","0","A"
"208901","Ludwigstraße","49.4828931","8.4485381","0","A"
"208902","Ludwigstraße","49.4833831","8.44808","0","B"
"209002","Marienkirche","49.4854839","8.4304189","0","B"
"209011","Marienkirche","49.4854719","8.4313361","0","D"
"209012","Marienkirche","49.4853789","8.4313811","0","A"
"209013","Marienkirche","49.48507","8.4298981","0","E"
"209014","Marienkirche","49.4851461","8.4304281","0","F"
"209015","Marienkirche","49.4854961","8.4298619","0","G"
"209021","Marienkirche","49.4852161","8.4308239","0","C"
"209211","Ebereschenweg","49.4666539","8.4010889","0","A"
"209314","Pfalzbau/Wilhelm-Hack-Museum","49.4790531","8.4468411","0","C"
"209321","Pfalzbau/Wilhelm-Hack-Museum","49.4802139","8.4459419","0","A"
"209322","Pfalzbau/Wilhelm-Hack-Museum","49.4800219","8.4454389","0","B"
"209341","Pfalzbau/Wilhelm-Hack-Museum","49.4792631","8.4453219","0","n/a"
"209342","Pfalzbau/Wilhelm-Hack-Museum","49.4791461","8.4454031","0","n/a"
"209411","Fieskostraße","49.4894819","8.3729269","0","A"
"209412","Fieskostraße","49.4895461","8.3730261","0","B"
"209511","Raschig","49.4659711","8.439645","0","B"
"209512","Raschig","49.46631","8.4401481","0","A"
"209601","LU Rathaus","49.4852389","8.4433011","0","3"
"209602","LU Rathaus","49.4852681","8.4433369","0","2"
"209611","LU Rathaus","49.4842639","8.4409481","0","B"
"209612","LU Rathaus","49.4842639","8.4409481","0","A"
"209711","Rhein-Galerie","49.4844511","8.4476669","0","B"
"209712","Rhein-Galerie","49.4848011","8.447685","0","A"
"209811","Bayreuther Straße","49.4777861","8.4197211","0","B"
"209812","Bayreuther Straße","49.4777281","8.4195589","0","A"
"210001","Rohrlachstraße","49.4830861","8.4298181","0","A"
"210002","Rohrlachstraße","49.4832311","8.4289911","0","B"
"210011","Rohrlachstraße","49.4828111","8.430195","0","C"
"210012","Rohrlachstraße","49.4825539","8.4299339","0","E"
"210013","Rohrlachstraße","49.4826711","8.4318839","0","D"
"210014","Rohrlachstraße","49.4830969","8.4309139","0","F"
"210201","Friesenheim Mitte","49.497895","8.4194869","0","A"
"210202","Friesenheim Mitte","49.4986419","8.4200081","0","n/a"
"210211","Friesenheim Mitte","49.4982689","8.4192889","0","D"
"210212","Friesenheim Mitte","49.498245","8.41902","0","C"
"210223","Friesenheim Mitte","49.4975281","8.4201161","0","E"
"210241","Friesenheim Mitte","49.4981931","8.4186869","0","V1"
"210511","Shellhaus","49.4703789","8.446895","0","B"
"210512","Shellhaus","49.4700111","8.4463381","0","A"
"210801","Südwest-Stadion","49.4721361","8.4396361","0","A"
"210802","Südwest-Stadion","49.4724281","8.439915","0","B"
"210803","Südwest-Stadion","49.4725211","8.4386211","0","E"
"210804","Südwest-Stadion","49.4722989","8.4389711","0","F"
"210811","Südwest-Stadion","49.4721239","8.4396811","0","C"
"210812","Südwest-Stadion","49.4725269","8.4398519","0","D"
"210911","Valentin-Bauer-Siedlung","49.4789881","8.4271589","0","A"
"210912","Valentin-Bauer-Siedlung","49.4788369","8.4253889","0","B"
"210913","Valentin-Bauer-Siedlung","49.4790819","8.4276889","0","C"
"210941","Valentin-Bauer-Siedlung","49.4780311","8.7483781","0","V1"
"211012","Valentin-Bauer-Siedlung Süd","49.4765781","8.4237719","0","A"
"211014","Valentin-Bauer-Siedlung Süd","49.4765781","8.4237719","0","A"
"211101","Wittelsbachplatz","49.4760181","8.4445411","0","A"
"211102","Wittelsbachplatz","49.4758019","8.4441461","0","B"
"211111","Wittelsbachplatz","49.4751069","8.443355","0","D"
"211112","Wittelsbachplatz","49.4755969","8.4436881","0","C"
"211221","Heinrich-Ries-Halle","49.4874739","8.4268261","0","A"
"211222","Heinrich-Ries-Halle","49.4882911","8.4258019","0","B"
"211511","Maudach Ortsmitte","49.4541589","8.3791711","0","A"
"211512","Maudach Ortsmitte","49.4540131","8.378335","0","B"
"211611","Leuschnerstraße","49.495165","8.42352","0","A"
"211612","Leuschnerstraße","49.4950831","8.42361","0","B"
"211614","Leuschnerstraße","49.4956781","8.42317","0","C"
"211711","Maudacher Schloss","49.45514","8.382935","0","B"
"211712","Maudacher Schloss","49.4552039","8.3830869","0","A"
"211811","Kärntner Straße","49.4571961","8.4039731","0","B"
"211812","Kärntner Straße","49.4569389","8.4040631","0","A"
"211911","Krappstraße","49.4550581","8.3729269","0","B"
"211912","Krappstraße","49.4552981","8.3725411","0","A"
"212011","Maudach","49.4563431","8.36787","0","A"
"212111","Maudacher Straße","49.461125","8.4157319","0","B"
"212112","Maudacher Straße","49.4612711","8.4158311","0","A"
"212211","Maudach Ortseingang","49.4551231","8.3892139","0","B"
"212212","Maudach Ortseingang","49.4551339","8.3898519","0","A"
"212311","Maudacher Bruch","49.4566819","8.3979631","0","B"
"212312","Maudacher Bruch","49.4568339","8.3980619","0","A"
"212411","Achtmorgenstraße","49.4658189","8.4193161","0","B"
"212412","Achtmorgenstraße","49.466135","8.4192439","0","A"
"212521","Am Schwanen","49.4634081","8.4295481","0","A"
"212522","Am Schwanen","49.4629181","8.4291261","0","B"
"212611","Friedenspark","49.4843811","8.4373539","0","B"
"212612","Friedenspark","49.484515","8.4370311","0","A"
"212711","Mundenheim Bahnhof","49.4617969","8.421975","0","B"
"212712","Mundenheim Bahnhof","49.461575","8.4216069","0","A"
"212911","Feuerwache","49.4645581","8.4355939","0","B"
"212912","Feuerwache","49.4645989","8.4359619","0","A"
"212914","Feuerwache","49.4632039","8.4355311","0","C"
"213011","Mundenheim Friedhof","49.4681489","8.4174211","0","B"
"213012","Mundenheim Friedhof","49.4681839","8.4168731","0","A"
"213201","Giulini","49.4534931","8.4254519","0","A"
"213202","Giulini","49.4530319","8.4251911","0","B"
"213211","Giulini","49.4529331","8.4250481","0","D"
"213212","Giulini","49.452255","8.4244911","0","C"
"213301","Stifterstraße","49.4687969","8.4355669","0","A"
"213302","Stifterstraße","49.4684931","8.4351719","0","B"
"213311","Stifterstraße","49.468505","8.4353869","0","C"
"213312","Stifterstraße","49.4686739","8.4352611","0","D"
"213401","Hoheneckenstraße","49.4571781","8.4268889","0","A"
"213402","Hoheneckenstraße","49.4566411","8.42662","0","B"
"213411","Hoheneckenstraße","49.4571489","8.4269431","0","C"
"213412","Hoheneckenstraße","49.45667","8.4265569","0","D"
"213711","Knappenwegstraße","49.4647681","8.4190019","0","B"
"213712","Knappenwegstraße","49.4636881","8.418445","0","A"
"213901","Mundenheim Nord","49.4658489","8.4321619","0","A"
"213902","Mundenheim Nord","49.4655269","8.4316769","0","B"
"213911","Mundenheim Nord","49.4656561","8.432755","0","D"
"213912","Mundenheim Nord","49.4659711","8.4326381","0","C"
"213913","Mundenheim Nord","49.4654519","8.43192","0","F"
"213914","Mundenheim Nord","49.4662281","8.432315","0","E"
"214101","Schillerschule","49.46029","8.42785","0","A"
"214102","Schillerschule","49.4597361","8.4276081","0","B"
"214111","Schillerschule","49.4597181","8.4277161","0","C"
"214112","Schillerschule","49.4600739","8.4276531","0","D"
"214201","Wollstraße","49.4858339","8.396975","0","A"
"214202","Wollstraße","49.4858281","8.3970561","0","B"
"214411","Damaschkestraße","49.4718439","8.4044131","0","B"
"214412","Damaschkestraße","49.4727081","8.403865","0","A"
"214413","Damaschkestraße","49.471605","8.4055361","0","D"
"214414","Damaschkestraße","49.4713769","8.4043411","0","C"
"214511","Niederfeld","49.4754919","8.4016011","0","B"
"214512","Niederfeld","49.4763561","8.4013319","0","A"
"214611","Adolf-Kolping-Straße","49.4944939","8.3624531","0","B"
"214612","Adolf-Kolping-Straße","49.4933269","8.3633239","0","A"
"214711","Am Weidenschlag","49.5057131","8.3758111","0","B"
"214712","Am Weidenschlag","49.505765","8.3760531","0","A"
"214811","Oggersheim Bahnhof","49.4929131","8.38138","0","A"
"214911","Bexbacher Straße","49.4920669","8.3982239","0","B"
"214912","Bexbacher Straße","49.4920781","8.3973431","0","A"
"215011","Buschwegbrücke","49.495095","8.3778231","0","B"
"215012","Buschwegbrücke","49.4951589","8.3778681","0","A"
"215111","Pettenkoferstraße","49.4860211","8.4223711","0","B"
"215112","Pettenkoferstraße","49.4860269","8.42246","0","A"
"215211","Oggersheim Friedhof","49.497195","8.3675819","0","B"
"215212","Oggersheim Friedhof","49.4971839","8.3674211","0","A"
"215311","Froschlache","49.4915181","8.3930589","0","B"
"215312","Froschlache","49.4916231","8.3912889","0","A"
"215313","Froschlache","49.4908469","8.39278","0","C"
"215413","Hans-Warsch-Platz","49.4931981","8.37582","0","C"
"215414","Hans-Warsch-Platz","49.4932739","8.3757389","0","D"
"215421","Hans-Warsch-Platz","49.4925269","8.3764939","0","A"
"215422","Hans-Warsch-Platz","49.49279","8.3760981","0","B"
"215511","Hollergärten","49.4899131","8.3846681","0","B"
"215512","Hollergärten","49.4896219","8.3836711","0","A"
"215612","Im Schelmenherschel","49.5009819","8.3754519","0","A"
"215721","Mannheimer Tor","49.49087","8.3789731","0","A"
"215722","Mannheimer Tor","49.491115","8.378775","0","B"
"215811","Notwende","49.5090089","8.3762419","0","A"
"216011","Rheinhorststraße","49.5033031","8.3712381","0","A"
"216111","Rosenwörthstraße","49.4968689","8.3748231","0","B"
"216112","Rosenwörthstraße","49.4972711","8.3741761","0","A"
"216211","Speyerer Straße","49.4821231","8.3671781","0","A"
"216212","Speyerer Straße","49.4820881","8.3671239","0","B"
"216312","Uferstraße","49.5044761","8.3747961","0","A"
"216501","Wilhelm-Tell-Straße","49.4905731","8.3707619","0","A"
"216502","Wilhelm-Tell-Straße","49.4904031","8.3699811","0","B"
"216601","Zum Guten Hirten","49.4881511","8.3879019","0","A"
"216602","Zum Guten Hirten","49.4883439","8.3868419","0","B"
"216631","Zum Guten Hirten","49.4886531","8.3866269","0","V1"
"216811","Bürgermeister-Zorn-Platz","49.5219039","8.39755","0","A"
"216812","Bürgermeister-Zorn-Platz","49.5222881","8.39746","0","B"
"216911","Dammbruchstraße","49.5233911","8.4017269","0","B"
"216912","Dammbruchstraße","49.5235069","8.4016369","0","A"
"217011","LU Frankenstraße","49.5151269","8.4034969","0","A"
"217012","LU Frankenstraße","49.515185","8.4036411","0","B"
"217111","Oppau Gemeindehaus","49.521705","8.403955","0","B"
"217112","Oppau Gemeindehaus","49.5214431","8.4044669","0","A"
"217211","Horst-Schork-Straße","49.5153189","8.4064161","0","B"
"217212","Horst-Schork-Straße","49.5153369","8.4065239","0","A"
"217311","Kirchenstraße","49.5197689","8.3985739","0","A"
"217312","Kirchenstraße","49.5200139","8.398475","0","B"
"217411","Kurt-Schumacher-Straße","49.52584","8.3985919","0","B"
"217412","Kurt-Schumacher-Straße","49.52549","8.3990861","0","A"
"217601","Oppau Süd","49.5125611","8.4078719","0","A"
"217602","Oppau Süd","49.5124269","8.4079261","0","B"
"217711","Karl-Dillinger-Straße","49.5014481","8.3804639","0","B"
"217712","Karl-Dillinger-Straße","49.5014369","8.3805631","0","A"
"217811","Oppau West","49.5223119","8.3946219","0","A"
"217911","Ostringplatz","49.532615","8.3899139","0","A"
"217912","Ostringplatz","49.5326961","8.38995","0","B"
"217913","Ostringplatz","49.5328361","8.3908939","0","C"
"217914","Ostringplatz","49.533775","8.3893931","0","D"
"217916","Ostringplatz","49.532755","8.3894019","0","E"
"218101","Oppau","49.5175881","8.4101089","0","A"
"218103","Oppau","49.5175761","8.4101619","0","B"
"218111","Oppau","49.517845","8.4101","0","E"
"218112","Oppau","49.5179911","8.410135","0","D"
"218113","Oppau","49.5181361","8.4101619","0","C"
"218211","Stützelstraße","49.51648","8.4006489","0","A"
"218212","Stützelstraße","49.51627","8.4008289","0","B"
"218511","Brüsseler Ring","49.5375181","8.3843811","0","B"
"218512","Brüsseler Ring","49.53764","8.3845069","0","A"
"218611","Heinz-Schifferdecker-Straße","49.5064889","8.3847311","0","B"
"218612","Heinz-Schifferdecker-Straße","49.5066169","8.3847039","0","A"
"218711","Pfingstweide Zentrum","49.5404681","8.388935","0","B"
"218712","Pfingstweide Zentrum","49.5404211","8.3888","0","A"
"218812","Eschenbachstraße","49.4997511","8.4217781","0","A"
"218911","Rheingönheim Bahnhof","49.4471039","8.4096589","0","B"
"218912","Rheingönheim Bahnhof","49.4467889","8.4094081","0","A"
"219101","Brückweg","49.4464739","8.4258289","0","A"
"219102","Brückweg","49.4461469","8.4258561","0","B"
"219201","Friedensstraße","49.4491539","8.4241581","0","A"
"219202","Friedensstraße","49.4493469","8.42388","0","B"
"219211","Friedensstraße","49.4495919","8.4235739","0","C"
"219212","Friedensstraße","49.4490611","8.42317","0","D"
"219412","Dürkheimer Straße","49.4923469","8.3686239","0","A"
"219701","Rheingönheim","49.443635","8.4193969","0","A"
"219711","Rheingönheim","49.4434069","8.4190019","0","C"
"220111","Am Hüttengraben","49.48137","8.3539819","0","A"
"220112","Am Hüttengraben","49.4812411","8.3535689","0","B"
"220211","Ruchheim Schloss","49.4715461","8.3307419","0","A"
"220212","Ruchheim Schloss","49.4715111","8.3295031","0","B"
"220301","Ruchheim","49.4784981","8.3275531","0","1"
"220302","Ruchheim","49.47858","8.3277961","0","2"
"220311","Ruchheim","49.4787961","8.3275261","0","A"
"220312","Ruchheim","49.47879","8.3276519","0","B"
"220313","Ruchheim","49.47778","8.3267719","0","C"
"220611","Am Sportplatz","49.4753581","8.336285","0","A"
"220612","Am Sportplatz","49.4754861","8.3362219","0","B"
"221811","Bliesstraße","49.4792281","8.4223619","0","B"
"221812","Bliesstraße","49.4794089","8.4226581","0","A"
"221911","BASF Süd","49.493315","8.4348661","0","D"
"221912","BASF Süd","49.4931461","8.4359889","0","B"
"221913","BASF Süd","49.4924219","8.4360611","0","A"
"221914","BASF Süd","49.494085","8.4347039","0","E"
"223011","Am Herrschaftsweiher","49.4795431","8.3294761","0","A"
"223012","Am Herrschaftsweiher","49.4799339","8.3307239","0","B"
"223111","Pasadenaallee","49.4813869","8.4360161","0","A"
"225511","Albert-Haueisen-Ring","49.5036889","8.3832219","0","B"
"225512","Albert-Haueisen-Ring","49.5036481","8.3832489","0","A"
"225801","Fahrlach","49.4735481","8.4982869","0","A"
"225802","Fahrlach","49.4732331","8.4989161","0","B"
"225811","Fahrlach","49.4736831","8.498395","0","C"
"225812","Fahrlach","49.4734081","8.4988619","0","D"
"231102","Adolf-Damaschke-Ring","49.4936419","8.5209881","0","B"
"231113","Adolf-Damaschke-Ring","49.4931169","8.5209339","0","D"
"231114","Adolf-Damaschke-Ring","49.49321","8.5212211","0","C"
"231121","Adolf-Damaschke-Ring","49.4934089","8.521015","0","A"
"231221","Am Aubuckel","49.4886239","8.5181219","0","A"
"231222","Am Aubuckel","49.4885131","8.5193261","0","B"
"231311","Andreas-Hofer-Straße","49.4904331","8.5255061","0","A"
"231312","Andreas-Hofer-Straße","49.4904911","8.5254611","0","B"
"231411","Feldstraße","49.4886819","8.5438139","0","B"
"231412","Feldstraße","49.48832","8.5436339","0","A"
"231501","Feudenheim","49.4840431","8.5376331","0","A"
"231511","Feudenheim","49.4840539","8.5378039","0","C"
"231512","Feudenheim","49.4840489","8.53802","0","D"
"231513","Feudenheim","49.48406","8.5384961","0","E"
"231601","Hölderlinstraße","49.4964719","8.5299081","0","A"
"231602","Hölderlinstraße","49.496355","8.5296289","0","B"
"231611","Hölderlinstraße","49.4962969","8.5296469","0","C"
"231612","Hölderlinstraße","49.4964189","8.5304561","0","D"
"231701","Feudenheim Kirche","49.486465","8.5306981","0","A"
"231702","Feudenheim Kirche","49.4863069","8.5304831","0","B"
"231711","Feudenheim Kirche","49.486745","8.5306089","0","C"
"231712","Feudenheim Kirche","49.486575","8.5314261","0","D"
"231811","Feudenheim Kreuz","49.4858689","8.5370669","0","A"
"231812","Feudenheim Kreuz","49.4860039","8.5366631","0","B"
"231921","Liebfrauenstraße","49.4884431","8.52344","0","A"
"231922","Liebfrauenstraße","49.4883261","8.523665","0","B"
"232001","Neckarplatt","49.4889681","8.5126961","0","A"
"232002","Neckarplatt","49.48891","8.5122019","0","B"
"232011","Neckarplatt","49.489085","8.51249","0","C"
"232012","Neckarplatt","49.4888631","8.5119061","0","D"
"232101","Neckarstraße","49.4842411","8.5329169","0","A"
"232102","Neckarstraße","49.4842589","8.532055","0","B"
"232111","Neckarstraße","49.4842939","8.5334831","0","C"
"232212","Hedwig-Laudien-Ring","49.4837739","8.3647439","0","A"
"232311","Am Rheinauer See","49.4162981","8.5300069","0","A"
"232312","Am Rheinauer See","49.4162689","8.5299619","0","B"
"232401","Talstraße","49.4953219","8.5246169","0","A"
"232402","Talstraße","49.495375","8.5252461","0","B"
"232411","Talstraße","49.4952411","8.5247869","0","C"
"232412","Talstraße","49.4951761","8.5248411","0","D"
"232502","Ziethenstraße","49.49045","8.5193081","0","B"
"232514","Ziethenstraße","49.4900939","8.5189211","0","C"
"232521","Ziethenstraße","49.4902981","8.5189661","0","A"
"232611","Alteichwaldsiedlung","49.4322619","8.5720481","0","A"
"232711","Elsa-Brändström-Straße","49.4501119","8.56558","0","A"
"232712","Elsa-Brändström-Straße","49.4502169","8.5655081","0","B"
"232812","Langlachweg","49.4463219","8.5718769","0","A"
"232911","Mülhauser Straße","49.4381561","8.5779861","0","A"
"233011","Neudorfstraße","49.4402361","8.5759111","0","A"
"233211","Rotterdamer Straße Nord","49.4277861","8.5139089","0","A"
"233312","Lilli-Gräber-Halle","49.4424961","8.5691369","0","A"
"233411","Friedrichsfeld Südbahnhof","49.4386761","8.5725511","0","A"
"233412","Friedrichsfeld Südbahnhof","49.4391431","8.5731081","0","B"
"233413","Friedrichsfeld Südbahnhof","49.4387111","8.573045","0","C"
"233511","Vogesenstraße","49.4425139","8.5790189","0","A"
"233512","Vogesenstraße","49.4425839","8.5789831","0","B"
"233611","Friedrichsfelder Kreuz","49.4467831","8.5765569","0","A"
"233711","Bastion","49.5177631","8.46602","0","B"
"233712","Bastion","49.5176989","8.4660289","0","A"
"233811","Dürstelschlag","49.510805","8.4523739","0","B"
"233812","Dürstelschlag","49.5107531","8.4523919","0","A"
"233911","Einsteinstraße","49.5193139","8.45974","0","B"
"233912","Einsteinstraße","49.5193611","8.4598481","0","A"
"234011","BASF Friesenheimer Insel","49.52174","8.4465889","0","A"
"234111","Max-Born-Straße","49.5210111","8.4550869","0","B"
"234112","Max-Born-Straße","49.5213789","8.4537939","0","A"
"234211","Kammerschleuse","49.5079181","8.4481161","0","B"
"234212","Kammerschleuse","49.5082439","8.4483231","0","A"
"234311","Rotterdamer Straße Mitte","49.4258469","8.5142139","0","A"
"234312","Rotterdamer Straße Mitte","49.4249231","8.514385","0","B"
"234411","Max-Planck-Straße","49.5193381","8.457135","0","B"
"234412","Max-Planck-Straße","49.5193139","8.4569739","0","A"
"234511","Niederweid","49.5131911","8.45639","0","B"
"234512","Niederweid","49.5131961","8.4565961","0","A"
"234611","Ölhafen","49.5251631","8.44914","0","A"
"234712","Ölhafenstraße","49.5230989","8.4500389","0","A"
"234811","Rheinrottstraße","49.51189","8.45462","0","B"
"234812","Rheinrottstraße","49.5116739","8.454395","0","A"
"234912","Riedwiesen","49.4178","8.5078269","0","A"
"235011","Muskatormühle","49.5316181","8.4495981","0","A"
"235111","Weidenwörth","49.5178861","8.46301","0","A"
"235112","Weidenwörth","49.5177339","8.4629561","0","B"
"235113","Weidenwörth","49.5185211","8.4632981","0","C"
"235114","Weidenwörth","49.5187431","8.4619231","0","D"
"235211","Boveristeg","49.5089211","8.4968861","0","B"
"235212","Boveristeg","49.5093581","8.4965439","0","A"
"235311","Am Kuhbuckel","49.525945","8.5110161","0","A"
"235312","Am Kuhbuckel","49.5259739","8.5110431","0","B"
"235411","Heizkraftwerk Nord","49.5241139","8.454135","0","A"
"235511","Äußere Wingertstraße","49.516165","8.5118611","0","B"
"235512","Äußere Wingertstraße","49.51641","8.5115281","0","A"
"235611","Käfertal DB-Bahnhof","49.5027781","8.5035061","0","B"
"235612","Käfertal DB-Bahnhof","49.5029011","8.5035689","0","A"
"235711","Lanzvilla","49.4845331","8.4872111","0","A"
"235712","Lanzvilla","49.4842639","8.48731","0","B"
"235713","Lanzvilla","49.4851461","8.486735","0","C"
"235714","Lanzvilla","49.4850169","8.4868969","0","D"
"235801","Bensheimer Straße","49.5133481","8.5263419","0","23"
"235802","Bensheimer Straße","49.513955","8.5279139","0","21"
"235803","Bensheimer Straße","49.5135761","8.526665","0","22"
"235911","Boveristraße","49.50601","8.5005781","0","D"
"235912","Boveristraße","49.5063431","8.500245","0","C"
"236011","Thomashaus","49.4664031","8.5067311","0","A"
"236012","Thomashaus","49.4665369","8.506345","0","B"
"236111","Käfertal Friedhof","49.5154131","8.5190469","0","A"
"236112","Käfertal Friedhof","49.5161239","8.5197481","0","B"
"236201","Speckweg","49.5205969","8.4990331","0","A"
"236202","Speckweg","49.5210581","8.4993831","0","B"
"236211","Speckweg","49.52065","8.4979369","0","D"
"236212","Speckweg","49.5206381","8.4980719","0","C"
"236311","Habichtplatz","49.51301","8.5082761","0","B"
"236342","Habichtplatz","49.5143281","8.508905","0","A"
"236411","Kutzerweiher","49.4830739","8.4909119","0","A"
"236412","Kutzerweiher","49.4829811","8.4908489","0","B"
"236501","Hessische Straße","49.5151789","8.4961939","0","A"
"236502","Hessische Straße","49.5156689","8.49641","0","B"
"236611","Maximilianstraße","49.4824839","8.48536","0","A"
"236612","Maximilianstraße","49.4825081","8.4857111","0","B"
"236701","Platz der Freundschaft","49.51834","8.5381089","0","2"
"236702","Platz der Freundschaft","49.5185211","8.5391961","0","1"
"236811","Kometenweg","49.52356","8.5118519","0","A"
"236812","Kometenweg","49.5232331","8.5116269","0","B"
"236911","Neues Leben","49.5193031","8.50259","0","B"
"236912","Neues Leben","49.5192619","8.50294","0","A"
"237111","Käfertal Rathaus","49.5120469","8.5178789","0","A"
"237112","Käfertal Rathaus","49.5130969","8.5173219","0","B"
"237142","Käfertal Rathaus","49.5123569","8.5182569","0","V2"
"237311","Käfertalschule","49.5142289","8.5153369","0","B"
"237312","Käfertalschule","49.5144739","8.5150139","0","A"
"237411","Sonnenschein","49.5218339","8.5050961","0","B"
"237412","Sonnenschein","49.5219739","8.5053211","0","A"
"237501","Käfertaler Wald","49.5293381","8.5091839","0","A"
"237511","Käfertaler Wald","49.5294781","8.5094619","0","C"
"237601","Käfertal Süd","49.5072","8.5063269","0","A"
"237602","Käfertal Süd","49.5069031","8.5053569","0","B"
"237611","Käfertal Süd","49.5072","8.5059139","0","C"
"237612","Käfertal Süd","49.5072761","8.5061111","0","D"
"237711","Gebweilerstraße","49.4378469","8.5714911","0","A"
"237811","Neustadter Straße","49.498205","8.50816","0","B"
"237812","Neustadter Straße","49.4985839","8.5077819","0","A"
"237911","Zäher Wille","49.5215539","8.4946669","0","B"
"237912","Zäher Wille","49.521705","8.4940739","0","A"
"238011","Pyramidenstraße","49.50671","8.4645111","0","A"
"238012","Pyramidenstraße","49.5066169","8.4647981","0","B"
"238211","Amselstraße","49.5459061","8.4591919","0","B"
"238212","Amselstraße","49.5459469","8.4591481","0","A"
"238301","MA Hauptbahnhof Süd","49.47743","8.46778","0","A"
"238302","MA Hauptbahnhof Süd","49.4768869","8.4679331","0","B"
"238311","MA Hauptbahnhof Süd","49.4776689","8.468355","0","C"
"238312","MA Hauptbahnhof Süd","49.4774769","8.4683011","0","D"
"238401","Meeräckerplatz","49.469305","8.4714281","0","A"
"238402","Meeräckerplatz","49.4689889","8.4719131","0","B"
"238411","Meeräckerplatz","49.4694861","8.47167","0","C"
"238601","Luzenberg","49.5161011","8.47573","0","C"
"238602","Luzenberg","49.51655","8.4764939","0","D"
"238603","Luzenberg","49.5160019","8.4752361","0","A"
"238604","Luzenberg","49.5163689","8.4750481","0","B"
"238615","Luzenberg","49.5167019","8.47556","0","E"
"238616","Luzenberg","49.516585","8.4755961","0","F"
"238618","Luzenberg","49.5164631","8.4757569","0","H"
"238712","Mercedes-Benz Tor 1","49.51641","8.4797189","0","A"
"238811","Diffenebrücke","49.5161939","8.4723439","0","B"
"238812","Diffenebrücke","49.516095","8.4719931","0","A"
"239011","Stolzeneckstraße","49.4461931","8.5228111","0","B"
"239012","Stolzeneckstraße","49.4461289","8.5226761","0","A"
"239121","Stolberger Straße","49.517845","8.4741139","0","A"
"239122","Stolberger Straße","49.51851","8.4734939","0","B"
"239211","Sporwörthplatz","49.442905","8.5190561","0","B"
"239212","Sporwörthplatz","49.4428169","8.518895","0","A"
"239311","Am Oberen Luisenpark","49.4804181","8.49358","0","A"
"239312","Am Oberen Luisenpark","49.480255","8.4935619","0","B"
"239401","Tannhäuserring","49.4524131","8.4777069","0","A"
"239402","Tannhäuserring","49.4522139","8.4769339","0","B"
"239511","Am Friedrichsplatz","49.4827881","8.4792431","0","A"
"239512","Am Friedrichsplatz","49.48249","8.47909","0","B"
"239611","Jakobuskirche","49.5438081","8.4532911","0","B"
"239612","Jakobuskirche","49.5440119","8.454045","0","A"
"239713","Bürgermeister-Fuchs-Straße","49.5011681","8.4636569","0","C"
"239721","Bürgermeister-Fuchs-Straße","49.5012669","8.4635939","0","A"
"239722","Bürgermeister-Fuchs-Straße","49.5011969","8.4638461","0","B"
"239801","Bibienastraße","49.4947039","8.4883611","0","A"
"239802","Bibienastraße","49.4945519","8.4887831","0","B"
"239811","Bibienastraße","49.4944881","8.48916","0","C"
"239812","Bibienastraße","49.4945761","8.4879831","0","D"
"239911","Bonadiesstraße","49.5047969","8.4498769","0","B"
"239912","Bonadiesstraße","49.50482","8.4499761","0","A"
"240011","Bunsenstraße","49.5019031","8.455985","0","B"
"240012","Bunsenstraße","49.5019381","8.4565239","0","A"
"240111","Kunstverein","49.4795781","8.4875789","0","B"
"240112","Kunstverein","49.4792281","8.4876511","0","A"
"240201","Dalbergstraße","49.4934731","8.4611331","0","A"
"240202","Dalbergstraße","49.4936011","8.4616089","0","B"
"240311","Dudenstraße","49.5007539","8.5009819","0","A"
"240312","Dudenstraße","49.5002639","8.5014939","0","B"
"240401","Exerzierplatz","49.5031631","8.4973619","0","A"
"240402","Exerzierplatz","49.5036131","8.4983681","0","B"
"240511","Jungbuschschule","49.4955561","8.4591389","0","A"
"240601","Fernmeldeturm","49.4868731","8.4934","0","2"
"240602","Fernmeldeturm","49.4868381","8.4933819","0","1"
"240611","Fernmeldeturm","49.48699","8.4928069","0","A"
"240612","Fernmeldeturm","49.4869019","8.4929689","0","B"
"240811","Groß-Gerauer Straße","49.54882","8.4423489","0","A"
"241021","Carl-Benz-Straße","49.499325","8.4716161","0","A"
"241022","Carl-Benz-Straße","49.4998261","8.4714461","0","B"
"241111","Gesamtschule Herzogenried","49.5083839","8.476305","0","A"
"241112","Gesamtschule Herzogenried","49.50839","8.4772131","0","B"
"241201","Gewerkschaftshaus","49.490485","8.4753439","0","A"
"241202","Gewerkschaftshaus","49.4892189","8.4758919","0","B"
"241211","Gewerkschaftshaus","49.4902169","8.4757389","0","C"
"241212","Gewerkschaftshaus","49.4883839","8.475865","0","D"
"241301","Bonifatiuskirche","49.4985781","8.4891781","0","C"
"241302","Bonifatiuskirche","49.4988989","8.48987","0","D"
"241303","Bonifatiuskirche","49.4989219","8.4884869","0","A"
"241304","Bonifatiuskirche","49.4993711","8.4885131","0","B"
"241311","Bonifatiuskirche","49.49915","8.4900681","0","G"
"241313","Bonifatiuskirche","49.4990269","8.4883881","0","E"
"241314","Bonifatiuskirche","49.4991611","8.4886389","0","F"
"241316","Bonifatiuskirche","49.4981169","8.4891419","0","I"
"241512","Güteramt","49.4985489","8.4485469","0","A"
"241601","Handelshafen","49.4918039","8.4539819","0","A"
"241602","Handelshafen","49.4918511","8.45365","0","B"
"241703","MA Hauptbahnhof","49.4801319","8.4700531","0","B"
"241704","MA Hauptbahnhof","49.4803019","8.4706461","0","C"
"241715","MA Hauptbahnhof","49.4803019","8.4685981","0","H"
"241721","MA Hauptbahnhof","49.480045","8.4700531","0","A"
"241722","MA Hauptbahnhof","49.4803481","8.4705469","0","D"
"241801","MA Hauptfriedhof","49.49097","8.4911369","0","A"
"241802","MA Hauptfriedhof","49.4906839","8.4912889","0","B"
"241811","MA Hauptfriedhof","49.4910981","8.49128","0","C"
"241812","MA Hauptfriedhof","49.4908411","8.4908039","0","D"
"241912","Hauptgüterbahnhof","49.5007539","8.446975","0","A"
"242011","Konrad-Duden-Schule","49.4404869","8.52326","0","B"
"242012","Konrad-Duden-Schule","49.4405339","8.5230089","0","A"
"242101","Herzogenriedstraße","49.5087689","8.4707269","0","A"
"242102","Herzogenriedstraße","49.5083789","8.4706731","0","B"
"242111","Herzogenriedstraße","49.50846","8.4715531","0","C"
"242112","Herzogenriedstraße","49.508425","8.4714719","0","D"
"242201","Hochuferstraße","49.5027381","8.4877231","0","A"
"242202","Hochuferstraße","49.5032511","8.4875789","0","B"
"242211","Hochuferstraße","49.5023819","8.4876781","0","C"
"242212","Hochuferstraße","49.5039389","8.4874981","0","D"
"242311","Hombuschstraße","49.5163281","8.4608181","0","B"
"242312","Hombuschstraße","49.5159839","8.4604769","0","A"
"242411","Ida-Scipio-Heim","49.4992261","8.48015","0","B"
"242412","Ida-Scipio-Heim","49.4990561","8.4814439","0","A"
"242511","MARCHIVUM","49.4994531","8.4613481","0","A"
"242512","MARCHIVUM","49.4995061","8.4615189","0","B"
"242513","MARCHIVUM","49.499815","8.4615639","0","C"
"242701","Kurpfalzbrücke","49.4937119","8.4693431","0","A"
"242702","Kurpfalzbrücke","49.493525","8.470125","0","B"
"242711","Kurpfalzbrücke","49.4929011","8.4706731","0","E"
"242901","Luisenpark/Technoseum","49.4789711","8.4957361","0","A"
"242902","Luisenpark/Technoseum","49.4785969","8.4965169","0","B"
"242911","Luisenpark/Technoseum","49.4788661","8.4963019","0","C"
"242912","Luisenpark/Technoseum","49.4786789","8.4959961","0","D"
"243012","Landgüterhalle","49.4962031","8.4502181","0","A"
"243121","Landwehrstraße","49.5054681","8.4896989","0","A"
"243122","Landwehrstraße","49.5057589","8.4903189","0","B"
"243201","Lange Rötterstraße","49.4957419","8.4863839","0","A"
"243202","Lange Rötterstraße","49.4961681","8.4869061","0","B"
"243211","Lange Rötterstraße","49.49597","8.4863489","0","C"
"243301","Lessingstraße","49.4892011","8.485585","0","2"
"243302","Lessingstraße","49.4891961","8.4853689","0","1"
"243411","Gutenbergstraße","49.4928719","8.5040631","0","A"
"243412","Gutenbergstraße","49.4929181","8.50392","0","B"
"243511","Lortzingstraße","49.4972831","8.467655","0","B"
"243512","Lortzingstraße","49.4972419","8.4678519","0","A"
"243611","Ludolf-Krehl-Straße","49.4972189","8.4921881","0","B"
"243612","Ludolf-Krehl-Straße","49.4973119","8.4924031","0","A"
"243711","Zielstraße","49.5057711","8.5000211","0","A"
"243712","Zielstraße","49.505485","8.5002011","0","B"
"243821","MA Marktplatz","49.4892419","8.4675111","0","A"
"243822","MA Marktplatz","49.4896039","8.468005","0","B"
"243911","Max-Joseph-Straße","49.4996689","8.4763139","0","B"
"243912","Max-Joseph-Straße","49.4996339","8.476225","0","A"
"244011","Möhlstraße","49.4746931","8.4871031","0","A"
"244012","Möhlstraße","49.4748681","8.4869589","0","B"
"244042","Möhlstraße","49.4739981","8.486825","0","V2"
"244211","Moselstraße","49.498835","8.4835011","0","B"
"244212","Moselstraße","49.4987939","8.4836181","0","A"
"244311","Mühldorferstraße","49.4770969","8.4880819","0","A"
"244312","Mühldorferstraße","49.4769461","8.4880461","0","B"
"244401","Nationaltheater","49.4876431","8.4767731","0","B"
"244402","Nationaltheater","49.4876489","8.478515","0","D"
"244403","Nationaltheater","49.4876961","8.4767461","0","A"
"244404","Nationaltheater","49.4877081","8.4784611","0","C"
"244411","Nationaltheater","49.4877781","8.4769611","0","E"
"244412","Nationaltheater","49.4876139","8.4781919","0","F"
"244442","Nationaltheater","49.4876261","8.4802131","0","V2"
"244511","MA Neckarspitze","49.5025219","8.4457","0","A"
"244611","Neckarstadt West","49.5038811","8.4606389","0","B"
"244612","Neckarstadt West","49.5036539","8.4606839","0","C"
"244621","Neckarstadt West","49.5028889","8.4599381","0","A"
"244721","Abendakademie","49.4915819","8.4696311","0","A"
"244722","Abendakademie","49.4918269","8.4700531","0","B"
"244811","Neckarvorlandstraße","49.5044531","8.444325","0","A"
"244901","Neuer Meßplatz","49.5048839","8.4699811","0","A"
"244902","Neuer Meßplatz","49.5053631","8.4699989","0","B"
"245011","Otto-Beck-Straße","49.4806519","8.4849019","0","A"
"245012","Otto-Beck-Straße","49.4805819","8.48422","0","B"
"245013","Otto-Beck-Straße","49.481335","8.4842911","0","C"
"245014","Otto-Beck-Straße","49.4810661","8.4842289","0","D"
"245121","Paradeplatz","49.4875381","8.46602","0","A"
"245122","Paradeplatz","49.4871181","8.465535","0","B"
"245123","Paradeplatz","49.4876081","8.4666569","0","C"
"245124","Paradeplatz","49.4872231","8.4675019","0","D"
"245221","Pestalozzischule","49.478615","8.4824231","0","A"
"245222","Pestalozzischule","49.4787611","8.482135","0","B"
"245301","Planetarium","49.4766189","8.489475","0","A"
"245302","Planetarium","49.4766711","8.4902919","0","B"
"245311","Planetarium","49.4765139","8.4889719","0","C"
"245312","Planetarium","49.4765311","8.4897619","0","D"
"245412","Bäckerweg","49.5049781","8.5063989","0","B"
"245801","MA Rheinstraße","49.4908939","8.4576739","0","C"
"245802","MA Rheinstraße","49.4911331","8.4580339","0","D"
"245803","MA Rheinstraße","49.49087","8.4580969","0","A"
"245804","MA Rheinstraße","49.4909811","8.4579261","0","B"
"245815","MA Rheinstraße","49.4912261","8.4596239","0","E"
"245901","Rosengarten","49.4852861","8.4752811","0","A"
"245902","Rosengarten","49.4857181","8.4756411","0","B"
"245912","Rosengarten","49.4858981","8.4759911","0","C"
"246011","Sandgewann","49.5099831","8.483195","0","A"
"246012","Sandgewann","49.5099181","8.4835369","0","B"
"246201","MA Schloss","49.4851811","8.4638639","0","A"
"246202","MA Schloss","49.4846319","8.4631811","0","B"
"246211","MA Schloss","49.4846611","8.4621389","0","D"
"246212","MA Schloss","49.4847369","8.4625339","0","C"
"246311","Therese-Blase-Straße","49.5030931","8.5266919","0","B"
"246312","Therese-Blase-Straße","49.50307","8.5267639","0","A"
"246401","Pfeifferswörth","49.4895219","8.5011711","0","A"
"246402","Pfeifferswörth","49.4894","8.5016919","0","B"
"246411","Pfeifferswörth","49.48968","8.5017819","0","C"
"246413","Pfeifferswörth","49.4895569","8.5024911","0","D"
"246414","Pfeifferswörth","49.4893361","8.5009369","0","E"
"246521","Strohmarkt","49.4863831","8.4698019","0","A"
"246522","Strohmarkt","49.4861789","8.470125","0","B"
"246601","Tattersall","49.48193","8.4727211","0","D"
"246602","Tattersall","49.4815969","8.4734489","0","E"
"246612","Tattersall","49.4820289","8.4755511","0","H"
"246711","Teufelsbrücke","49.4945289","8.4571261","0","A"
"246712","Teufelsbrücke","49.4940331","8.4570719","0","B"
"246811","Ida-Dehmel-Ring","49.5046919","8.5311481","0","A"
"246812","Ida-Dehmel-Ring","49.5048489","8.5309681","0","B"
"246911","TÜV","49.4977089","8.5044139","0","A"
"246912","TÜV","49.4978019","8.5043061","0","B"
"247001","Ulmenweg","49.5073931","8.4930139","0","A"
"247002","Ulmenweg","49.5077019","8.4936069","0","B"
"247011","Ulmenweg","49.5070889","8.4927361","0","C"
"247012","Ulmenweg","49.5073931","8.4933369","0","D"
"247121","Universität","49.4826711","8.4653731","0","A"
"247122","Universität","49.4815739","8.4656239","0","B"
"247201","Untermühlaustraße","49.5106831","8.4712481","0","A"
"247202","Untermühlaustraße","49.5113481","8.4714719","0","B"
"247212","Untermühlaustraße","49.51133","8.4715889","0","D"
"247312","Verlängerte Jungbuschstraße","49.4946981","8.4522219","0","A"
"247412","Wasserwerkstraße","49.51438","8.5214911","0","A"
"247513","Wasserturm","49.48486","8.474715","0","C"
"247514","Wasserturm","49.4841589","8.4740511","0","D"
"247516","Wasserturm","49.4833311","8.4738711","0","E"
"247521","Wasserturm","49.4849881","8.4732239","0","A"
"247522","Wasserturm","49.4846669","8.4738169","0","B"
"247621","Weberstraße","49.4764731","8.48607","0","A"
"247622","Weberstraße","49.47649","8.4857381","0","B"
"247721","Werderstraße","49.48109","8.476755","0","A"
"247722","Werderstraße","49.480605","8.4782369","0","B"
"248011","August-Bebel-Straße","49.4667131","8.4802939","0","A"
"248012","August-Bebel-Straße","49.4667769","8.4800689","0","B"
"248101","Neckarau Bahnhof","49.4554031","8.4942989","0","A"
"248102","Neckarau Bahnhof","49.4554961","8.4941281","0","B"
"248113","Neckarau Bahnhof","49.4552631","8.4952239","0","E"
"248114","Neckarau Bahnhof","49.4550119","8.4954311","0","F"
"248212","MA Ladenburger Straße","49.5121411","8.5205111","0","A"
"248301","Dannstadter Straße","49.4463389","8.5089589","0","A"
"248302","Dannstadter Straße","49.4460411","8.5093269","0","B"
"248411","Ausgasse","49.5481089","8.4389981","0","A"
"248511","Sandhofen Rathaus","49.5450081","8.4431669","0","A"
"248611","Neckarau Friedhof","49.455035","8.501575","0","B"
"248612","Neckarau Friedhof","49.4548069","8.5011169","0","A"
"248701","Friedrichstraße","49.4536281","8.4951339","0","A"
"248702","Friedrichstraße","49.4532661","8.4954039","0","B"
"248711","Friedrichstraße","49.45378","8.4943081","0","D"
"248712","Friedrichstraße","49.453295","8.4950981","0","C"
"248801","Freiheitsplatz","49.4595081","8.4793961","0","A"
"248802","Freiheitsplatz","49.4590519","8.4796561","0","B"
"248811","Freiheitsplatz","49.4595781","8.4795119","0","C"
"248911","Helmertstraße","49.4542639","8.5136211","0","B"
"248912","Helmertstraße","49.4542119","8.5138819","0","A"
"249111","Im Morchhof","49.4559281","8.5045389","0","B"
"249112","Im Morchhof","49.4557361","8.5053569","0","A"
"249113","Im Morchhof","49.4558989","8.5053931","0","C"
"249201","Isarweg","49.4494231","8.5025631","0","A"
"249202","Isarweg","49.4490611","8.5032189","0","B"
"249401","Lettestraße","49.4653869","8.4868519","0","A"
"249402","Lettestraße","49.4654461","8.4866811","0","B"
"249511","Mallaustraße","49.4543231","8.5096781","0","B"
"249512","Mallaustraße","49.4542119","8.5099919","0","A"
"249611","Neckarau Marktplatz","49.4532189","8.4917289","0","B"
"249612","Neckarau Marktplatz","49.45305","8.4918911","0","A"
"249701","Markuskirche","49.4646219","8.4755961","0","A"
"249702","Markuskirche","49.4652411","8.4750569","0","B"
"249711","Markuskirche","49.4647631","8.475335","0","C"
"249712","Markuskirche","49.4649731","8.4751289","0","D"
"249713","Markuskirche","49.4646219","8.4758381","0","E"
"249811","Matthäuskirche","49.4539081","8.4885219","0","B"
"249812","Matthäuskirche","49.4539839","8.488055","0","A"
"249913","MA Hochschule","49.4682189","8.4833839","0","C"
"249921","MA Hochschule","49.469935","8.4840219","0","A"
"249922","MA Hochschule","49.4694211","8.48386","0","B"
"250021","Windeckstraße","49.474535","8.46876","0","A"
"250022","Windeckstraße","49.4738931","8.468795","0","B"
"250101","Rheingoldhalle","49.4499539","8.4694239","0","A"
"250311","Holzweg","49.45173","8.5614119","0","A"
"250502","Diesterwegschule","49.4710031","8.4700261","0","B"
"250521","Diesterwegschule","49.4715639","8.4698639","0","A"
"250601","Voltastraße","49.46161","8.4899869","0","A"
"250602","Voltastraße","49.4610731","8.4902739","0","B"
"250701","Neckarau West","49.4556661","8.48192","0","A"
"250702","Neckarau West","49.4550931","8.481875","0","B"
"250711","Neckarau West","49.4551811","8.4820011","0","C"
"250811","Hafenpark","49.5099711","8.4659481","0","A"
"250812","Hafenpark","49.5105889","8.46717","0","B"
"250911","Industriestraße","49.5056719","8.4599469","0","A"
"250912","Industriestraße","49.5064589","8.4610339","0","B"
"251011","Fardelystraße","49.5040681","8.4585281","0","A"
"251012","Fardelystraße","49.5038289","8.4576919","0","B"
"251111","Lochgärten","49.4701389","8.4996711","0","A"
"251112","Lochgärten","49.46997","8.499545","0","B"
"251311","Teufelsloch","49.4728711","8.5013861","0","A"
"251312","Teufelsloch","49.4728131","8.5013319","0","B"
"251411","Am Schäferstock","49.474885","8.5042339","0","A"
"251412","Am Schäferstock","49.47506","8.5033361","0","B"
"251521","Harrlach","49.4781419","8.5063989","0","A"
"251522","Harrlach","49.4782469","8.5067939","0","B"
"251621","Kopernikusstraße","49.4783411","8.4776981","0","A"
"251622","Kopernikusstraße","49.4785739","8.4772581","0","B"
"251711","Grünewaldstraße","49.4783931","8.5092739","0","A"
"251821","Hans-Thoma-Straße","49.4752411","8.5243381","0","A"
"251822","Hans-Thoma-Straße","49.474745","8.5241231","0","B"
"251921","Lucas-Cranach-Straße","49.4784861","8.5125069","0","A"
"251922","Lucas-Cranach-Straße","49.4784511","8.5129389","0","B"
"252021","Maimarkt","49.4703439","8.5226669","0","A"
"252022","Maimarkt","49.4684519","8.5220569","0","B"
"252101","Duale Hochschule","49.4753811","8.534085","0","2"
"252102","Duale Hochschule","49.4752469","8.5345431","0","1"
"252201","Neuostheim","49.4777039","8.5225869","0","4"
"252202","Neuostheim","49.4774069","8.5232781","0","3"
"252203","Neuostheim","49.4777981","8.522685","0","2"
"252204","Neuostheim","49.4774711","8.5233319","0","1"
"252211","Neuostheim","49.47722","8.5234039","0","A"
"252212","Neuostheim","49.4773539","8.5231531","0","B"
"252213","Neuostheim","49.4774481","8.5228831","0","C"
"252214","Neuostheim","49.4775469","8.5225419","0","D"
"252215","Neuostheim","49.4775531","8.5224881","0","E"
"252301","Carl-Benz-Stadion","49.4778789","8.5022039","0","A"
"252302","Carl-Benz-Stadion","49.4778331","8.5022489","0","B"
"252311","Carl-Benz-Stadion","49.4779731","8.5019881","0","C"
"252312","Carl-Benz-Stadion","49.4777339","8.502455","0","D"
"252421","Schwindstraße","49.47844","8.5182931","0","A"
"252422","Schwindstraße","49.4783761","8.5189039","0","B"
"252501","Rheinau Bahnhof","49.424555","8.5347589","0","A"
"252502","Rheinau Bahnhof","49.424135","8.5351811","0","B"
"252511","Rheinau Bahnhof","49.4242219","8.535325","0","C"
"252512","Rheinau Bahnhof","49.4241111","8.5355039","0","D"
"252611","Chiemseestraße","49.4172331","8.5341839","0","A"
"252612","Chiemseestraße","49.4171111","8.5340761","0","B"
"252711","Faltkistenwerk","49.4213061","8.5116811","0","A"
"252712","Faltkistenwerk","49.4213469","8.5105939","0","B"
"252811","Fridtjof-Nansen-Weg","49.4127161","8.5408761","0","A"
"252911","Frobeniusstraße","49.4168831","8.5381989","0","A"
"252912","Frobeniusstraße","49.4167661","8.5379119","0","B"
"253011","Hallenweg","49.448115","8.5328631","0","B"
"253012","Hallenweg","49.4488861","8.535055","0","A"
"253111","Essener Straße","49.4212189","8.5082231","0","A"
"253221","Distelsand","49.4283411","8.5314169","0","A"
"253222","Distelsand","49.427845","8.5316511","0","B"
"253301","Holbeinstraße","49.4815161","8.5118431","0","2"
"253302","Holbeinstraße","49.4808789","8.5137831","0","1"
"253411","Karl-Schwaner-Straße","49.4191269","8.5337261","0","A"
"253412","Karl-Schwaner-Straße","49.4191789","8.5336989","0","B"
"253511","Leutweinstraße","49.4197461","8.5302761","0","A"
"253512","Leutweinstraße","49.42012","8.5283631","0","B"
"253711","Lüderitzstraße","49.4192139","8.5351361","0","A"
"253712","Lüderitzstraße","49.4191439","8.534965","0","B"
"253911","Martinistraße","49.4431439","8.5267731","0","B"
"253912","Martinistraße","49.4432611","8.5270961","0","A"
"254011","Martinskirche","49.4176189","8.5274289","0","A"
"254012","Martinskirche","49.4177131","8.5271769","0","B"
"254111","EMBL","49.3837831","8.7098489","0","A"
"254211","Münchwälderstraße","49.42168","8.5344711","0","A"
"254212","Münchwälderstraße","49.4217211","8.5350281","0","B"
"254321","Neuhofer Straße","49.4350831","8.52609","0","A"
"254322","Neuhofer Straße","49.43551","8.52565","0","B"
"254401","Rheinau Karlsplatz","49.4390319","8.5229819","0","A"
"254402","Rheinau Karlsplatz","49.4385589","8.5233231","0","B"
"254404","Rheinau Karlsplatz","49.4386231","8.5227211","0","D"
"254411","Rheinau Karlsplatz","49.4389739","8.5228019","0","C"
"254511","Pfingstberg","49.4459889","8.5291711","0","B"
"254512","Pfingstberg","49.446205","8.52971","0","A"
"254711","Rohrhofer Straße","49.42064","8.5257489","0","A"
"254712","Rohrhofer Straße","49.4208681","8.5259281","0","B"
"254811","Rotterdamer Straße Süd","49.4213239","8.5154089","0","A"
"254812","Rotterdamer Straße Süd","49.4214061","8.5145831","0","C"
"254814","Rotterdamer Straße Süd","49.4222239","8.5149331","0","D"
"254816","Rotterdamer Straße Süd","49.4206931","8.5146631","0","B"
"254911","Ruhrorter Straße","49.4214231","8.5206281","0","A"
"254912","Ruhrorter Straße","49.4214761","8.5191281","0","B"
"255001","Sandrain","49.4435831","8.5147889","0","A"
"255002","Sandrain","49.4427711","8.5163789","0","B"
"255111","Pigagestraße","49.4139839","8.5280839","0","A"
"255112","Pigagestraße","49.4137969","8.5281469","0","B"
"255211","Gerhart-Hauptmann-Schule","49.4146211","8.54014","0","A"
"255212","Gerhart-Hauptmann-Schule","49.4148431","8.5401761","0","B"
"255321","Waldseestraße","49.4319989","8.5284531","0","A"
"255322","Waldseestraße","49.4315311","8.5288031","0","B"
"255511","Bartholomäuskirche","49.5456489","8.4468319","0","A"
"255512","Bartholomäuskirche","49.54604","8.4467061","0","B"
"255612","Blumenauer Weg","49.5555161","8.4482239","0","A"
"255701","Bürstadter Straße","49.5352089","8.453255","0","A"
"255702","Bürstadter Straße","49.5354889","8.4529581","0","B"
"255711","Bürstadter Straße","49.5354889","8.453335","0","C"
"255712","Bürstadter Straße","49.5350169","8.4540089","0","D"
"255811","Sandhofen Friedhof","49.5505281","8.453605","0","A"
"255812","Sandhofen Friedhof","49.5501961","8.45232","0","B"
"255911","Füllenweg","49.5621589","8.4486461","0","A"
"256001","Hanfstraße","49.5381819","8.4511969","0","A"
"256002","Hanfstraße","49.5386139","8.4509189","0","B"
"256011","Hanfstraße","49.5382581","8.4512419","0","C"
"256012","Hanfstraße","49.5383631","8.4512239","0","D"
"256111","Karl-Schweizer-Park","49.5492111","8.4485831","0","A"
"256112","Karl-Schweizer-Park","49.548855","8.4479731","0","B"
"256114","Karl-Schweizer-Park","49.5488611","8.447065","0","C"
"256211","Kirschgartshausen","49.5811911","8.4476311","0","C"
"256311","Krähenflügel","49.5513089","8.456695","0","A"
"256312","Krähenflügel","49.5514189","8.4574861","0","B"
"256421","Krappmühlstraße","49.4751831","8.4813089","0","A"
"256422","Krappmühlstraße","49.4752881","8.481165","0","B"
"256512","Sandhofer Weg","49.5586461","8.4479819","0","A"
"256611","Scharhof","49.5601661","8.4479281","0","A"
"256613","Scharhof","49.560015","8.4477389","0","C"
"256701","Sandhofen","49.542135","8.44941","0","A"
"256711","Sandhofen","49.5419419","8.4496161","0","C"
"256712","Sandhofen","49.5417789","8.4497239","0","D"
"256713","Sandhofen","49.5416569","8.449805","0","E"
"256901","Collini-Center","49.4919211","8.4761439","0","2"
"256902","Collini-Center","49.491325","8.4780931","0","1"
"256932","Collini-Center","49.4905789","8.4763411","0","B"
"257011","Blumenau","49.5614889","8.4786681","0","A"
"257111","Rastenburger Straße","49.55079","8.4683911","0","B"
"257112","Rastenburger Straße","49.5505739","8.468445","0","A"
"257211","Brockenweg","49.557195","8.4798361","0","A"
"257212","Brockenweg","49.5570081","8.4799619","0","B"
"257311","Graudenzer Linie","49.5394069","8.4810569","0","B"
"257312","Graudenzer Linie","49.5393019","8.48112","0","A"
"257411","Haderslebener Straße","49.5422861","8.4810311","0","B"
"257412","Haderslebener Straße","49.5418839","8.4810931","0","A"
"257611","Kerschensteinerschule","49.5469781","8.4794581","0","B"
"257612","Kerschensteinerschule","49.5470369","8.4797011","0","A"
"257711","Königsberger Allee","49.54653","8.4692811","0","B"
"257712","Königsberger Allee","49.546605","8.4690469","0","A"
"257811","Eislebener Weg","49.5088981","8.5507219","0","A"
"257812","Eislebener Weg","49.5087869","8.5505061","0","B"
"257911","Sachsenstraße","49.5073231","8.5456369","0","A"
"257912","Sachsenstraße","49.5074281","8.5464281","0","B"
"258011","Tilsiter Straße","49.552375","8.4675919","0","B"
"258012","Tilsiter Straße","49.5524219","8.46787","0","A"
"258111","Max-Winterhalter-Ring","49.5511219","8.4812461","0","A"
"258112","Max-Winterhalter-Ring","49.551635","8.48139","0","B"
"258211","Memeler Straße","49.5448039","8.48095","0","B"
"258212","Memeler Straße","49.5448981","8.4810481","0","A"
"258311","Freiberger Ring","49.5093411","8.5406519","0","A"
"258421","Schönauschule","49.5437731","8.4740239","0","A"
"258422","Schönauschule","49.5442511","8.4741581","0","B"
"258701","Deutscher Hof","49.47133","8.5565069","0","2"
"258702","Deutscher Hof","49.47084","8.55692","0","1"
"258711","Deutscher Hof","49.47112","8.5565431","0","A"
"258712","Deutscher Hof","49.4712311","8.5549619","0","B"
"258811","Hochstätt","49.4525181","8.5383161","0","B"
"258812","Hochstätt","49.4532131","8.5393581","0","A"
"258911","Kapellenplatz","49.4627781","8.5551769","0","B"
"258912","Kapellenplatz","49.4626019","8.5550431","0","A"
"259011","Lämmertränke","49.4599919","8.5696939","0","A"
"259012","Lämmertränke","49.461055","8.5692","0","B"
"259101","Seckenheim OEG-Bahnhof","49.4623919","8.5693169","0","2"
"259102","Seckenheim OEG-Bahnhof","49.4618381","8.57","0","1"
"259111","Seckenheim OEG-Bahnhof","49.4619781","8.5694969","0","A"
"259211","Zähringer Straße","49.4636361","8.5599389","0","B"
"259212","Zähringer Straße","49.4621411","8.5603881","0","A"
"259301","Pforzheimer Straße","49.4734669","8.5501019","0","2"
"259302","Pforzheimer Straße","49.4732919","8.55056","0","1"
"259414","Seckenheim Rathaus","49.4668181","8.56364","0","D"
"259415","Seckenheim Rathaus","49.4667769","8.5637469","0","E"
"259421","Seckenheim Rathaus","49.4673369","8.5626161","0","A"
"259422","Seckenheim Rathaus","49.4668761","8.5633431","0","B"
"259511","Schlittweg","49.4558581","8.5435169","0","B"
"259512","Schlittweg","49.4558931","8.5437419","0","A"
"259612","Schwabenstraße","49.4625911","8.5676189","0","A"
"259711","Suebenheim","49.4552039","8.5699911","0","A"
"259712","Suebenheim","49.4548311","8.5700539","0","B"
"259801","Carl-Benz-Bad","49.5263761","8.5052581","0","A"
"259802","Carl-Benz-Bad","49.5267489","8.5058331","0","B"
"259911","Pumpwerk","49.4606869","8.5526261","0","B"
"259912","Pumpwerk","49.4594089","8.5505869","0","A"
"260012","Chemnitzer Straße","49.51126","8.5522219","0","B"
"260111","Im Wohlbühl","49.5090089","8.5298539","0","A"
"260112","Im Wohlbühl","49.5093819","8.53024","0","B"
"260212","Magdeburger Straße","49.5138611","8.54703","0","A"
"260301","Potsdamer Weg","49.508145","8.53316","0","A"
"260302","Potsdamer Weg","49.5082681","8.533465","0","B"
"260311","Potsdamer Weg","49.5102389","8.5313181","0","C"
"260312","Potsdamer Weg","49.5101581","8.5317131","0","D"
"260411","Schweriner Weg","49.5068039","8.5343719","0","A"
"260412","Schweriner Weg","49.50699","8.5348669","0","B"
"260542","Straßenheimer Weg","49.5114061","8.5548","0",
"260601","Vogelstang","49.5117561","8.5437511","0","A"
"260611","Vogelstang","49.5124211","8.5437061","0","B"
"260612","Vogelstang","49.5124619","8.5439661","0","C"
"260711","Warnemünder Weg","49.5078419","8.5370669","0","A"
"260811","Kurpfalz Center","49.52058","8.5555819","0","A"
"260901","Vogelstang West","49.5060281","8.5320369","0","A"
"260902","Vogelstang West","49.5065411","8.5320639","0","B"
"260903","Vogelstang West","49.5065589","8.53113","0","2"
"260904","Vogelstang West","49.5061789","8.5318661","0","1"
"260911","Vogelstang West","49.507025","8.5317219","0","C"
"260912","Vogelstang West","49.5074339","8.5315519","0","D"
"260914","Vogelstang West","49.5058181","8.5332769","0","E"
"261001","Vogelstang Zentrum","49.5102681","8.5386219","0","A"
"261002","Vogelstang Zentrum","49.5105081","8.5393669","0","B"
"261011","Vogelstang Zentrum","49.5109039","8.5392861","0","C"
"261012","Vogelstang Zentrum","49.5107181","8.5393489","0","D"
"261013","Vogelstang Zentrum","49.5111839","8.5381631","0","E"
"261014","Vogelstang Zentrum","49.5112081","8.5384689","0","F"
"261111","Alsenweg","49.5318039","8.4843539","0","B"
"261112","Alsenweg","49.5320731","8.4835731","0","A"
"261201","Altrheinstraße","49.5253439","8.4711311","0","A"
"261202","Altrheinstraße","49.5258569","8.470915","0","B"
"261211","Altrheinstraße","49.5257","8.471095","0","C"
"261212","Altrheinstraße","49.525595","8.4711939","0","D"
"261311","Am Herrschaftswald","49.5340669","8.5075311","0","B"
"261312","Am Herrschaftswald","49.5338281","8.5077461","0","A"
"261401","Erlöserkirche","49.5253439","8.4977211","0","A"
"261402","Erlöserkirche","49.5261719","8.4957","0","B"
"261521","Waldhof Bahnhof","49.52479","8.48174","0","A"
"261522","Waldhof Bahnhof","49.525245","8.4819831","0","B"
"261523","Waldhof Bahnhof","49.5246789","8.4817489","0","C"
"261601","Roche","49.528295","8.4690831","0","A"
"261602","Roche","49.5287081","8.468715","0","B"
"261611","Roche","49.5284169","8.4691281","0","C"
"261612","Roche","49.5287031","8.4689119","0","D"
"261711","Eschenhof","49.53546","8.5045839","0","B"
"261712","Eschenhof","49.5355469","8.504225","0","A"
"261811","Föhrenweg","49.53711","8.5000481","0","B"
"261812","Föhrenweg","49.537215","8.4996531","0","A"
"261911","Wetzlarer Winkel","49.52251","8.4895469","0","B"
"261912","Wetzlarer Winkel","49.5225281","8.4896089","0","A"
"262001","Freilichtbühne","49.5335419","8.4929511","0","A"
"262002","Freilichtbühne","49.5338981","8.4932211","0","B"
"262111","Freyaplatz","49.5297169","8.4930769","0","A"
"262112","Freyaplatz","49.5296239","8.492125","0","B"
"262211","Glücksburger Weg","49.5364039","8.4862681","0","B"
"262212","Glücksburger Weg","49.5361011","8.4852981","0","A"
"262311","Kasseler Straße","49.5274369","8.4983589","0","A"
"262312","Kasseler Straße","49.5275419","8.498395","0","B"
"262411","Langer Schlag","49.5311281","8.5096869","0","B"
"262412","Langer Schlag","49.5310931","8.5095789","0","A"
"262511","Neueichwaldstraße","49.5303061","8.4999219","0","A"
"262512","Neueichwaldstraße","49.5303061","8.500245","0","B"
"262601","Waldhof Nord","49.5306211","8.4814261","0","A"
"262602","Waldhof Nord","49.5311919","8.4810219","0","B"
"262611","Waldhof Nord","49.5325511","8.4811111","0","C"
"262612","Waldhof Nord","49.5327489","8.48121","0","D"
"262721","Papyrus","49.5333789","8.4601089","0","A"
"262722","Papyrus","49.5335939","8.4595069","0","B"
"262811","Taunusplatz","49.524055","8.4848661","0","A"
"262812","Taunusplatz","49.523775","8.4853331","0","B"
"262911","Waldpforte","49.5379031","8.4965981","0","B"
"262912","Waldpforte","49.5379781","8.4967419","0","A"
"263001","Waldstraße","49.52826","8.4900861","0","A"
"263002","Waldstraße","49.5285511","8.4894211","0","B"
"263011","Waldstraße","49.5281019","8.4885219","0","D"
"263012","Waldstraße","49.52812","8.4887111","0","E"
"263013","Waldstraße","49.5290581","8.4885581","0","C"
"263121","Zellstoff-Fabrik","49.5311981","8.4653011","0","A"
"263122","Zellstoff-Fabrik","49.5315011","8.4648339","0","B"
"263212","Alemannenstraße","49.4949611","8.5531831","0","A"
"263311","Amorbacher Straße","49.497995","8.5429419","0","A"
"263401","Kiesäcker","49.4990389","8.5365639","0","A"
"263402","Kiesäcker","49.4989161","8.5365911","0","B"
"263412","Kiesäcker","49.4984611","8.536645","0","D"
"263501","Wallstadt Bahnhof","49.4988061","8.5487189","0","A"
"263502","Wallstadt Bahnhof","49.498485","8.5493831","0","B"
"263611","Osterburker Straße","49.4937239","8.5462211","0","B"
"263612","Osterburker Straße","49.493905","8.5470661","0","A"
"263812","Wallstadtschule","49.4976089","8.5487719","0","A"
"263911","Wallstadt Sportanlagen","49.5006369","8.542475","0","B"
"263912","Wallstadt Sportanlagen","49.500795","8.542215","0","A"
"264012","Wallstadt Wasserturm","49.4992611","8.5443261","0","A"
"264211","Hansastraße","49.5091889","8.4693881","0","C"
"264212","Hansastraße","49.5092419","8.4684","0","B"
"264301","Wallstadt Ost","49.4975039","8.5533539","0","1"
"264302","Wallstadt Ost","49.4972889","8.5539831","0","2"
"264311","Wallstadt Ost","49.4975281","8.5545311","0","C"
"264411","Spreewaldallee","49.517075","8.5561031","0","A"
"264501","Wallstadt West","49.5005319","8.54385","0","1"
"264502","Wallstadt West","49.5002581","8.5443981","0","2"
"264511","Wallstadt West","49.5007131","8.5436431","0","C"
"264601","Stollenwörth","49.4510111","8.4731431","0","A"
"264602","Stollenwörth","49.4505969","8.47194","0","B"
"264911","Öllager","49.5298689","8.4470919","0","A"
"265001","Waldfriedhof","49.5356119","8.4944781","0","A"
"265011","Waldfriedhof","49.5358619","8.4948561","0","C"
"265012","Waldfriedhof","49.5358211","8.4949719","0","D"
"265111","Malzstraße","49.5134411","8.517915","0","A"
"265911","Fürstenwalder Weg","49.51035","8.5355039","0","A"
"265912","Fürstenwalder Weg","49.5103031","8.5355669","0","B"
"266711","Auf den Ried","49.50258","8.5378489","0","A"
"267011","Otto-Thiele-Platz","49.4677689","8.4008381","0","A"
"267012","Otto-Thiele-Platz","49.46802","8.4008831","0","B"
"267511","MA Frankenstraße","49.4929239","8.5510719","0","A"
"268011","Gotenstraße","49.49971","8.55524","0","A"
"269111","Wallstadt Friedhof","49.5005269","8.5526889","0","A"
"269311","Storchenstraße","49.5017981","8.5504339","0","A"
"269411","Wallstadt Mitte","49.4963319","8.5463919","0","A"
"269611","Georg-Heieck-Straße","49.5103269","8.3840569","0","A"
"269712","Steinzeugstraße","49.4469581","8.5674219","0","A"
"269714","Steinzeugstraße","49.4476239","8.567395","0","B"
"269911","Werner-Heisenberg-Straße","49.5287611","8.4508289","0","A"
"270711","Siebenbürger Straße","49.5099419","8.5563811","0",
"271001","Hermann-Gutzmann-Schule","49.5228311","8.5007839","0","A"
"271002","Hermann-Gutzmann-Schule","49.5232219","8.5012789","0","B"
"271011","Hermann-Gutzmann-Schule","49.5239739","8.5014581","0","C"
"271012","Hermann-Gutzmann-Schule","49.5237869","8.5012431","0","D"
"272901","Jugendverkehrsschule","49.5113819","8.4939389","0","A"
"272902","Jugendverkehrsschule","49.5117911","8.49349","0","B"
"273211","Herrenalber Straße","49.4688961","8.5518719","0","B"
"273212","Herrenalber Straße","49.4690831","8.5520869","0","A"
"273411","Robert-Lauth-Straße","49.5090961","8.3830239","0","B"
"273412","Robert-Lauth-Straße","49.5092011","8.3831139","0","A"
"276312","Eisenlohrplatz","49.5008819","8.494065","0","A"
"276511","Wohlgelegen EKZ","49.5037061","8.4996081","0","A"
"280511","Friedrich-Engelhorn-Straße","49.4999611","8.4971461","0","A"
"280611","Brauerei","49.4959869","8.4898611","0","A"
"280711","IKEA/Scharhof","49.5567981","8.444855","0","A"
"280912","Landzungenstraße","49.4953811","8.45427","0","A"
"281001","Maxdorf","49.4801089","8.29357","0","1"
"281002","Maxdorf","49.4801561","8.2938311","0","2"
"281401","Maxdorf Süd","49.4763789","8.2892761","0","1"
"281402","Maxdorf Süd","49.47656","8.2892669","0","2"
"282911","Kirchwaldstraße","49.5349531","8.4912619","0","B"
"282912","Kirchwaldstraße","49.5349411","8.4911189","0","A"
"283011","Feuerwache Nord","49.5175181","8.5082761","0","B"
"283012","Feuerwache Nord","49.5173611","8.5087531","0","A"
"283312","Saarburger Ring","49.4459069","8.57565","0","A"
"284721","SAP Arena","49.4649089","8.5204669","0","A"
"284722","SAP Arena","49.463315","8.5189569","0","B"
"284911","Heinrich-Halfen-Straße","49.5076261","8.38077","0","A"
"285812","Böcklinstraße","49.466","8.4475139","0","A"
"285911","Parkinsel","49.46617","8.45179","0","A"
"286511","Schwanthalerplatz","49.4692811","8.4555631","0","A"
"286711","Rheingönheim Gemeindehaus","49.4442889","8.4155431","0","B"
"286712","Rheingönheim Gemeindehaus","49.4442661","8.4155881","0","A"
"287511","Meßkircher Straße","49.461365","8.5617081","0","A"
"287512","Meßkircher Straße","49.4615461","8.5618339","0","B"
"291112","Pfalzburger Straße","49.4430689","8.5732431","0","A"
"295111","Besselstraße","49.4503169","8.5161461","0","B"
"295112","Besselstraße","49.4502869","8.5163069","0","A"
"295411","Krügerstraße","49.4536389","8.5163069","0","B"
"295412","Krügerstraße","49.4535519","8.516155","0","A"
"298512","Neckargemünd Altes Rathaus","49.3932439","8.7994561","0","A"
"298611","Neckargemünd Bahnhof","49.3941089","8.7871939","0","A"
"298612","Neckargemünd Bahnhof","49.3940619","8.7873381","0","B"
"298812","Dreikreuzweg","49.384145","8.8025469","0","A"
"298911","Eichendorffstraße","49.3850169","8.8032739","0","A"
"299311","Friedrich-Ebert-Straße","49.3882619","8.8036339","0","A"
"299312","Friedrich-Ebert-Straße","49.38866","8.8035711","0","B"
"299511","Hanfmarkt","49.3948169","8.79669","0","B"
"299512","Hanfmarkt","49.3947639","8.7967161","0","A"
"299612","Herrenweg","49.3811161","8.8032919","0","A"
"299711","Kümmelbacher Hof","49.393145","8.7766569","0","B"
"299712","Kümmelbacher Hof","49.3929219","8.7767561","0","A"
"299811","Letzter Heller","49.39377","8.8008669","0","A"
"299911","Melacpass","49.3928761","8.7814719","0","B"
"299912","Melacpass","49.3927939","8.7818489","0","A"
"300111","Neckargemünd Bildungszentrum","49.3840339","8.8058431","0","B"
"300311","Stadttor","49.3921619","8.8014869","0","B"
"300312","Stadttor","49.39163","8.8010911","0","A"
"301211","Apostelkirche","49.4874331","8.432405","0","B"
"301212","Apostelkirche","49.4874389","8.4325931","0","A"
"301411","Schützenhausbrücke","49.3945769","8.7917581","0","B"
"301412","Schützenhausbrücke","49.3944781","8.79059","0","A"
"301812","Havellandstraße","49.5192039","8.5492311","0","A"
"301911","Taylor Nord","49.51932","8.5536411","0","A"
"302401","Husarenweg","49.4693981","8.5025269","0","A"
"302402","Husarenweg","49.4690769","8.502985","0","B"
"302411","Husarenweg","49.4688731","8.5001111","0","D"
"302412","Husarenweg","49.4688489","8.500075","0","C"
"302501","Ulanenweg","49.4676869","8.5061381","0","A"
"302502","Ulanenweg","49.4673839","8.5067581","0","B"
"302511","Ulanenweg","49.4676469","8.5034169","0","D"
"302512","Ulanenweg","49.4676061","8.50347","0","C"
"302601","Gerd-Dehof-Platz","49.4660589","8.5099019","0","A"
"302602","Gerd-Dehof-Platz","49.4656269","8.5100369","0","B"
"302611","Gerd-Dehof-Platz","49.4656211","8.5084831","0","C"
"302701","SAP Arena Süd","49.46311","8.516505","0","A"
"302702","SAP Arena Süd","49.4628011","8.517125","0","B"
"302801","Technoseum Süd","49.4761169","8.49358","0","A"
"302802","Technoseum Süd","49.4758539","8.4941639","0","B"
"302811","Technoseum Süd","49.4760181","8.4935169","0","C"
"302812","Technoseum Süd","49.47586","8.493535","0","D"
"304111","Im Bieth","49.3868119","8.6625619","0","A"
"304112","Im Bieth","49.3866781","8.6624811","0","B"
"305301","Franklin Mitte","49.5199969","8.528875","0","A"
"305302","Franklin Mitte","49.5201369","8.5292431","0","B"
"305701","Franklinschule","49.5172969","8.5254519","0","A"
"305702","Franklinschule","49.5176989","8.5258381","0","B"
"305811","Rooseveltstraße","49.5219681","8.5285419","0","A"
"305911","Offizierssiedlung","49.520545","8.5254339","0","A"
"308411","Hatschekstraße","49.363135","8.6861431","0","A"
"308711","Washingtonstraße","49.5178039","8.5287039","0","A"
"327811","Luzenberg Ost","49.5157861","8.4760539","0","B"
"327812","Luzenberg Ost","49.5167719","8.4779219","0","A"
"328411","Nachtweide","49.5413069","8.4052039","0","A"
"330611","Floßwörth","49.4600039","8.4996081","0","B"
"330612","Floßwörth","49.4600681","8.4988531","0","A"
"336812","Rohrbach NVZ","49.383385","8.6792711","0","A"
"339811","Lincolnallee","49.520545","8.5326211","0","A"
"344012","Abzweig Klinge","49.4558","8.807245","0","A"
"344112","Krone","49.4608331","8.8064","0","A"
"344212","Pflug","49.4654281","8.8043789","0","A"
"344311","Steinachbrücke","49.4670569","8.8014239","0","B"
"344312","Steinachbrücke","49.4669811","8.801415","0","A"
"344412","Festplatz","49.4305381","8.811395","0","A"
"344512","Abzw. Lindenbach","49.4205061","8.8066161","0","A"
"344611","Käfertal Kulturhaus","49.5101081","8.5159861","0","A"
"344612","Käfertal Kulturhaus","49.5097689","8.5154931","0","B"
"344712","Schönau Marktplatz","49.437075","8.8098411","0","A"
"345012","Schönau Sparkasse","49.4348789","8.809365","0","A"
"345111","Moll-Gymnasium","49.4633561","8.4693789","0","A"
"345411","Kormoranstraße","49.501775","8.5458981","0","A"
"347901","Schriesheim Bahnhof","49.4717511","8.6602261","0","1"
"347902","Schriesheim Bahnhof","49.4723169","8.660155","0","3"
"347903","Schriesheim Bahnhof","49.472235","8.66011","0","2"
"348201","Schriesheim Süd","49.4632561","8.6636669","0","1"
"348202","Schriesheim Süd","49.4638811","8.6634961","0","2"
"348401","Zentgrafenstraße","49.4768581","8.6577019","0","1"
"348402","Zentgrafenstraße","49.47736","8.6574689","0","2"
"349511","Glücksteinallee","49.4730169","8.4766919","0","A"
"349512","Glücksteinallee","49.4744819","8.4741489","0","B"
"349611","Hochschule West","49.4719369","8.4792431","0","A"
"349612","Hochschule West","49.4716689","8.4798539","0","B"
"349711","Funaristraße","49.51606","8.5236919","0","A"
"370311","Lilienthal-Center","49.5478989","8.4575039","0","A"
"383501","Viernheim Walter-Gropius-Allee","49.5391439","8.59544","0","2"
"383502","Viernheim Walter-Gropius-Allee","49.5392781","8.5962389","0","1"
"384101","Viernheim Kapellenberg","49.5297989","8.5751831","0","2"
"384102","Viernheim Kapellenberg","49.529775","8.576","0","1"
"385101","Viernheim Bahnhof","49.5353719","8.58245","0","2"
"385102","Viernheim Bahnhof","49.5356761","8.5832769","0","1"
"385103","Viernheim Bahnhof","49.5353381","8.5825039","0","3"
"385301","Viernheim Ost","49.53746","8.5894031","0","2"
"385302","Viernheim Ost","49.5375181","8.5897719","0","1"
"385911","Bismarckstraße","49.4829219","8.4455111","0","A"
"386501","Viernheim Tivoli","49.5281081","8.56487","0","2"
"386502","Viernheim Tivoli","49.528295","8.5656969","0","1"
"388812","Rieslingweg","49.4998561","8.5071981","0","A"
"389401","SAP Arena S-Bahnhof","49.4599919","8.5169539","0","A"
"389402","SAP Arena S-Bahnhof","49.459695","8.5176281","0","B"
"389411","SAP Arena S-Bahnhof","49.4602961","8.5163519","0","C"
"389412","SAP Arena S-Bahnhof","49.4602669","8.5162889","0","D"
"390211","Wachenheimer Straße","49.5014019","8.5103611","0","A"
"390212","Wachenheimer Straße","49.5014369","8.510585","0","B"
"390411","Deidesheimer Straße","49.5027431","8.51346","0","A"
"390412","Deidesheimer Straße","49.5025919","8.5131811","0","B"
"392011","Chisinauer Platz","49.5041261","8.5167661","0","A"
"392012","Chisinauer Platz","49.5041439","8.5169719","0","B"
"395011","Anna-Sammet-Straße","49.5038689","8.5216431","0","A"
"395012","Anna-Sammet-Straße","49.5037989","8.5218769","0","B"
"402611","Rüdesheimer Straße","49.5044881","8.5056081","0","A"
"404801","Sullivan","49.522545","8.5341839","0","A"
"404802","Sullivan","49.5226331","8.534965","0","B"
"404911","Franklin Sportanlagen","49.5188769","8.5311389","0","A"
"407701","Hohensachsen","49.5201719","8.655295","0","1"
"407702","Hohensachsen","49.520755","8.6553039","0","2"
"408401","Lützelsachsen Bergstraße","49.526615","8.656885","0","1"
"408402","Lützelsachsen Bergstraße","49.5271569","8.657415","0","2"
"408501","Lützelsachsen Pilgerhaus","49.5327081","8.65825","0","1"
"408502","Lützelsachsen Pilgerhaus","49.5332619","8.6586269","0","2"
"410501","Blumenstraße","49.5446239","8.6376339","0","2"
"410502","Blumenstraße","49.5444719","8.638505","0","1"
"410901","Weinheim Hauptbahnhof","49.551845","8.6654639","0","2"
"410902","Weinheim Hauptbahnhof","49.5513031","8.6652569","0","1"
"411301","Weinheim Freiburger Straße","49.54537","8.6287939","0","2"
"411302","Weinheim Freiburger Straße","49.5451069","8.63095","0","1"
"411801","Händelstraße","49.54868","8.6555461","0","2"
"411802","Händelstraße","49.5490181","8.6565611","0","1"
"413201","Rosenbrunnen","49.5408061","8.6606489","0","1"
"413202","Rosenbrunnen","49.5414119","8.6610081","0","2"
"413601","Stahlbad","49.5451131","8.6492669","0","2"
"413602","Stahlbad","49.5449681","8.6490869","0","1"
"414601","Weinheim Alter OEG-Bahnhof","49.5492281","8.6650411","0","2"
"414602","Weinheim Alter OEG-Bahnhof","49.5486511","8.6648981","0","1"
"414603","Weinheim Alter OEG-Bahnhof","49.5491119","8.6651131","0","3"
"414691","Weinheim Alter OEG-Bahnhof","49.5481561","8.6647539","0","n/a"
"414692","Weinheim Alter OEG-Bahnhof","49.5497","8.6651039","0","n/a"
"425611","Schwetzinger Terrasse","49.3994589","8.6716439","0","B"
"425612","Schwetzinger Terrasse","49.3993181","8.6717611","0","A"
"427201","HD Hauptbahnhof Süd","49.4020189","8.6738811","0","B"
"427202","HD Hauptbahnhof Süd","49.40185","8.6740611","0","A"
"427211","HD Hauptbahnhof Süd","49.4020019","8.6729019","0","E"
"427212","HD Hauptbahnhof Süd","49.4013761","8.6724789","0","F"
"427234","HD Hauptbahnhof Süd","49.4018439","8.6743119","0","C"
"427402","Gadamerplatz","49.4038139","8.6679519","0","D"
"427403","Gadamerplatz","49.4033581","8.6684281","0","B"
"427404","Gadamerplatz","49.4032819","8.6685","0","A"
"427501","Eppelheimer Terrasse","49.4051989","8.6597861","0","B"
"427502","Eppelheimer Terrasse","49.4054039","8.6594539","0","A"
"427812","Maria-Mitchel-Straße","49.4042461","8.6704581","0","V2"
"429011","Wilhelmsfeld Autohalle","49.4630689","8.7634339","0","B"
"429012","Wilhelmsfeld Autohalle","49.4630581","8.7634611","0","A"
"429111","Kettenschmiede","49.4688731","8.7890089","0","A"
"429112","Kettenschmiede","49.4687789","8.7897369","0","B"
"429311","Wilhelmsfeld Rathaus","49.4657261","8.7607389","0","A"
"429312","Wilhelmsfeld Rathaus","49.4655161","8.7608111","0","B"
"429511","Schriesheimer Hof","49.47032","8.7542981","0","B"
"429512","Schriesheimer Hof","49.4702089","8.7544511","0","A"
"429611","Unterdorf","49.46659","8.772345","0","B"
"429612","Unterdorf","49.4666311","8.7727669","0","A"
"429711","Wilhelmshöhe","49.4682419","8.758215","0","B"
"429712","Wilhelmshöhe","49.4681719","8.75826","0","A"
"460611","Rheingönheim Hauptstraße","49.4451831","8.4199719","0","B"
"460612","Rheingönheim Hauptstraße","49.4453111","8.4207719","0","A"
"474311","Oppau Friedhof","49.5218739","8.4086711","0","A"
"474312","Oppau Friedhof","49.5218981","8.408725","0","B"
"515211","Paul-Münch-Straße","49.4755681","8.3276431","0","B"
"515212","Paul-Münch-Straße","49.4758369","8.3275981","0","A"
"515711","Brunnenweg","49.4721939","8.334345","0","A"
"515712","Brunnenweg","49.4724281","8.3350539","0","B"
"554001","Franz-Sigel-Straße","49.4627781","8.4769519","0","A"
"554002","Franz-Sigel-Straße","49.46231","8.4772939","0","B"
"554011","Franz-Sigel-Straße","49.4629819","8.4770239","0","C"
"554201","Kunsthalle","49.4833311","8.473485","0","B"
"554202","Kunsthalle","49.4829339","8.4730361","0","A"
"554203","Kunsthalle","49.4833011","8.4735661","0","C"
"554211","Kunsthalle","49.4825081","8.4723081","0","F"
"554212","Kunsthalle","49.4823331","8.47282","0","G"
"554301","Theresienkrankenhaus","49.4897669","8.4806981","0","A"
"554302","Theresienkrankenhaus","49.4901989","8.4810839","0","B"
"554311","Theresienkrankenhaus","49.49003","8.48068","0","C"
"554312","Theresienkrankenhaus","49.4891139","8.4805181","0","D"
"554342","Theresienkrankenhaus","49.4891139","8.4805181","0","n/a"
"554401","Universitätsklinikum","49.4935719","8.4838781","0","A"
"554402","Universitätsklinikum","49.4938811","8.48448","0","C"
"554404","Universitätsklinikum","49.493805","8.4845069","0","B"
"554411","Universitätsklinikum","49.4936481","8.4836631","0","E"
"554412","Universitätsklinikum","49.4934031","8.48422","0","D"
"554501","Mannheimer Straße","49.5079289","8.5123731","0","A"
"554502","Mannheimer Straße","49.5079819","8.51328","0","B"
"554511","Mannheimer Straße","49.508355","8.5128131","0","D"
"554512","Mannheimer Straße","49.5084311","8.5129481","0","C"
"554601","Im Rott","49.5079181","8.5278331","0","1"
"554602","Im Rott","49.50769","8.527985","0","2"
"554611","Im Rott","49.5075969","8.5288569","0","B"
"554612","Im Rott","49.5073231","8.5278511","0","A"
"554701","Käfertal Bahnhof","49.5096561","8.5181039","0","2"
"554702","Käfertal Bahnhof","49.5101461","8.5185169","0","1"
"554703","Käfertal Bahnhof","49.5101339","8.5185531","0","4"
"554704","Käfertal Bahnhof","49.5097261","8.518365","0","3"
"554711","Käfertal Bahnhof","49.5092711","8.5178081","0","A"
"554712","Käfertal Bahnhof","49.5094339","8.5179239","0","B"
"554713","Käfertal Bahnhof","49.5096381","8.5180319","0","C"
"554714","Käfertal Bahnhof","49.5098189","8.5181761","0","D"
"554715","Käfertal Bahnhof","49.5102981","8.5184089","0","E"
"554802","Alte Feuerwache","49.4961389","8.4736819","0","B"
"554815","Alte Feuerwache","49.4958181","8.4722269","0","F"
"554821","Alte Feuerwache","49.4956319","8.4732331","0","A"
"554824","Alte Feuerwache","49.4961219","8.47379","0","C"
"554901","MVV-Hochhaus","49.49398","8.4655711","0","A"
"554902","MVV-Hochhaus","49.4938931","8.4671339","0","B"
"555021","Neumarkt","49.4989219","8.4673489","0","A"
"555022","Neumarkt","49.4988231","8.4677711","0","B"
"555301","Schönau","49.5468681","8.4742211","0","A"
"555302","Schönau","49.5472519","8.4742931","0","B"
"555311","Schönau","49.5468269","8.4746261","0","C"
"555421","Schönau Siedlung","49.5400419","8.4734669","0","A"
"555422","Schönau Siedlung","49.5398789","8.4734581","0","B"
"555511","Eugen-Neter-Schule","49.565935","8.4931669","0","D"
"555611","Sonderburger Straße","49.5353781","8.4810481","0","B"
"555612","Sonderburger Straße","49.5361131","8.4811469","0","A"
"555721","Blücherstraße","49.4873919","8.5273481","0","A"
"555722","Blücherstraße","49.48727","8.5277339","0","B"
"555811","Antwerpener Straße","49.4176369","8.50506","0","A"
"555911","Hofrat-Wild-Straße","49.4502061","8.5207719","0","B"
"555912","Hofrat-Wild-Straße","49.45013","8.5221639","0","A"
"556011","Pfalzplatz","49.4647039","8.4699181","0","A"
"556211","MA Otto-Hahn-Straße","49.5260319","8.4547461","0","A"
"556301","Heddesheim Bahnhof","49.5048139","8.5941731","0","A"
"557511","Haus Waldhof","49.52591","8.4860519","0","B"
"557512","Haus Waldhof","49.5253911","8.485845","0","A"
"558811","Karl-Feuerstein-Straße","49.5222881","8.4874181","0","B"
"558812","Karl-Feuerstein-Straße","49.5222711","8.48722","0","A"
"559001","Schafweide","49.4948319","8.47918","0","A"
"559022","Schafweide","49.4944761","8.47962","0","B"
"564711","Hafenbahnstraße","49.5135231","8.4836089","0","A"
"564712","Hafenbahnstraße","49.5137389","8.48227","0","B"
"569811","Dortmunder Straße","49.4187881","8.5153819","0","E"
"569812","Dortmunder Straße","49.4187819","8.515355","0","A"
"570001","Oggersheim","49.4884489","8.3646989","0","A"
"570002","Oggersheim","49.4882969","8.3643119","0","D"
"570003","Oggersheim","49.488495","8.3642939","0","B"
"570004","Oggersheim","49.4881739","8.3638719","0","C"
"570011","Oggersheim","49.4898611","8.3654619","0","E"
"574201","Dossenheim Nord","49.4528389","8.6672511","0","1"
"574202","Dossenheim Nord","49.4534639","8.6670811","0","2"
"587112","Schönau Gewerbegebiet","49.4265889","8.8089781","0","A"
"587212","Abzw. Schul-/Sportzentrum","49.4428519","8.8092931","0","A"
"587311","Heiligkreuzsteinach Schule","49.4853439","8.7957189","0","A"
"600411","Mensa am Schloss","49.48657","8.4592011","0","A"
"600511","Akademiestraße","49.4923989","8.4567219","0","A"
"600512","Akademiestraße","49.4924919","8.4568211","0","B"
"600611","Popakademie","49.4963669","8.4574681","0","A"
"600612","Popakademie","49.4970489","8.4576381","0","B"
"600711","Verbindungskanal","49.5009231","8.4516469","0","A"
"600811","Leoniweg","49.5106011","8.4919989","0","A"
"600812","Leoniweg","49.5103619","8.49261","0","B"
"602911","Otto-Bauder-Sportanlagen","49.4659831","8.5496889","0","A"
"602912","Otto-Bauder-Sportanlagen","49.4662339","8.5509911","0","B"
"603111","Innerer Heckweg","49.4592631","8.56319","0","A"
"603112","Innerer Heckweg","49.4586261","8.5629119","0","B"
"603611","Pfingstberg Sportanlagen","49.449435","8.5245269","0","B"
"603612","Pfingstberg Sportanlagen","49.44916","8.52485","0","A"
"604101","MA Rathaus/rem","49.4890731","8.4626869","0","A"
"604113","MA Rathaus/rem","49.48898","8.4628219","0","C"
"604122","MA Rathaus/rem","49.4892539","8.4623281","0","B"
"608011","Am Salzkai","49.49674","8.4604681","0","A"
"608012","Am Salzkai","49.4963781","8.4608989","0","B"
"612011","Im Hauskorb","49.469445","8.7967339","0","B"
"612012","Im Hauskorb","49.46938","8.7963931","0","A"
"614011","Quartier am Turm","49.3819411","8.6821539","0","B"
"614012","Quartier am Turm","49.382005","8.6821269","0","A"
"614111","Fabrikstraße","49.380005","8.6821719","0","B"
"614112","Fabrikstraße","49.3800689","8.6821","0","A"
"614211","Maria-von-Graimberg-Haus","49.3782911","8.6800789","0","B"
"614212","Maria-von-Graimberg-Haus","49.3783669","8.6792081","0","A"
"614311","Herrenmühle","49.4137211","8.7167661","0","A"
"614313","Herrenmühle","49.4139081","8.7176919","0","B"
"614341","Herrenmühle","49.4143289","8.7168111","0","C"
"614411","Campus Im Neuenheimer Feld","49.4134231","8.670485","0","B"
"614412","Campus Im Neuenheimer Feld","49.413435","8.670315","0","A"
"614511","Kopfklinik","49.4190511","8.667135","0","A"
"614512","Kopfklinik","49.4191789","8.66691","0","B"
"615811","Prager Straße","49.5418369","8.39022","0","B"
"615812","Prager Straße","49.5418489","8.3888631","0","A"
"615911","Holländerstraße","49.4281839","8.5090219","0","A"
"617312","Kompostwerk","49.4358139","8.6400139","0","A"
"640412","Tiefburg","49.4277161","8.6860711","0","A"
"640511","Bachlenz","49.4303281","8.68802","0","B"
"640512","Bachlenz","49.4302289","8.6880469","0","A"
"640712","Heiligenbergstraße","49.4297089","8.6938139","0","A"
"640812","Waldweg","49.429825","8.6978389","0","B"
"640911","Turnerbrunnen","49.4317889","8.7053761","0","A"
"641011","Bahofweg","49.43152","8.7010369","0","A"
"641111","Mühltalstraße","49.4309881","8.69783","0","A"
"647211","Heiligenberg","49.42213","8.70587","0","A"
"660011","FT Industriegebiet Am Römig","49.4860089","8.3206181","0","A"
"664511","Ebertpark Süd","49.4870311","8.414825","0","A"
"664512","Ebertpark Süd","49.4871119","8.414735","0","B"
"664611","LU Völklinger Straße","49.48856","8.4044311","0","A"
"664612","LU Völklinger Straße","49.48867","8.4041889","0","B"
"664711","Burbacher Straße","49.4899481","8.3949539","0","A"
"664712","Burbacher Straße","49.4901231","8.3942169","0","B"
"664811","Erich-Kästner-Straße","49.4857531","8.3685519","0","A"
"664812","Erich-Kästner-Straße","49.4859389","8.36857","0","B"
"664901","Westlich B 9","49.4834939","8.3542869","0","1"
"664902","Westlich B 9","49.4833481","8.35364","0","2"
"664911","Westlich B 9","49.48378","8.3531731","0","B"
"664912","Westlich B 9","49.4829689","8.3537211","0","A"
"665011","Oderstraße","49.4877481","8.3516281","0","A"
"670911","Neckarhausen Friedhof","49.4609439","8.598045","0","A"
"670912","Neckarhausen Friedhof","49.46203","8.5986919","0","B"
"673911","Budapester Straße","49.5379431","8.3891689","0","A"
"674011","Londoner Ring","49.5438131","8.3894111","0","A"
"674111","Theodor-Heuss-Brücke","49.4133531","8.6925119","0","A"
"674112","Theodor-Heuss-Brücke","49.4133939","8.6910661","0","B"
"675511","Universität West","49.4876431","8.4575039","0","C"
"675512","Universität West","49.4869431","8.4573689","0","D"
"676411","MA Käfertaler Straße","49.5025739","8.502195","0","B"
"676412","MA Käfertaler Straße","49.5022769","8.5014939","0","A"
"679101","Ringstraße","49.40379","8.68219","0","B"
"679102","Ringstraße","49.4029189","8.6810669","0","A"
"679411","Montpellierbrücke","49.3995519","8.6768269","0","C"
"679412","Montpellierbrücke","49.3996569","8.67645","0","D"
"679421","Montpellierbrücke","49.4007861","8.6787861","0","A"
"679422","Montpellierbrücke","49.4004989","8.6783011","0","B"
"679501","Messplatz","49.3910861","8.6754619","0","A"
"679502","Messplatz","49.3910281","8.6753631","0","B"
"679511","Messplatz","49.3919339","8.6758031","0","C"
"679912","Mary-Somerville-Platz (hip)","49.3960039","8.67274","0","A"
"680311","Irisstraße","49.4588189","8.3722539","0","A"
"680312","Irisstraße","49.4589589","8.3719389","0","B"
"680411","Nelkestraße","49.4568861","8.3752539","0","A"
"680412","Nelkestraße","49.4567281","8.3754339","0","B"
"680511","Riedstraße","49.4554731","8.3780569","0","A"
"680512","Riedstraße","49.4554261","8.3779761","0","B"
"680611","Am Sandloch","49.4480511","8.4086711","0","B"
"680612","Am Sandloch","49.4488389","8.4082219","0","A"
"680711","Wasserwerk","49.4737531","8.3641869","0","A"
"680712","Wasserwerk","49.4736711","8.3640789","0","B"
"680811","Karlsbader Straße","49.4769511","8.4043319","0","B"
"680812","Karlsbader Straße","49.4770269","8.4040181","0","A"
"680911","Berufsbildungszentrum","49.4758369","8.4075931","0","B"
"680912","Berufsbildungszentrum","49.4757081","8.4076469","0","A"
"681011","Heuweg","49.4733089","8.4094711","0","B"
"681012","Heuweg","49.4733969","8.4094889","0","A"
"682511","Am Zapfenberg","49.4306669","8.6925839","0","A"
"682612","Rolloßweg","49.4302581","8.6910031","0","A"
"682711","Erich-Hübner-Platz","49.4284581","8.6874989","0","B"
"682712","Erich-Hübner-Platz","49.4281661","8.68758","0","A"
"683811","Mühlaustraße","49.5290989","8.3841919","0","A"
"683843","Mühlaustraße","49.5290989","8.3841919","0","V1"
"685512","Innovation Park (hip)","49.394185","8.6709339","0","A"
"685611","Eastsite","49.4754569","8.505995","0","A"
"685612","Eastsite","49.4752939","8.5060219","0","B"
"687711","Strandbad Blies","49.4754689","8.4151661","0","B"
"687712","Strandbad Blies","49.4756211","8.4154089","0","A"
"687811","In den Neugärten","49.4788719","8.3660369","0","A"
"687812","In den Neugärten","49.4791289","8.3660639","0","B"
"695712","Untere Rödt","49.40216","8.6472011","0","A"
"707311","Sickingenplatz","49.3841689","8.6827019","0","A"
"707312","Sickingenplatz","49.3840581","8.6828281","0","B"
"707313","Sickingenplatz","49.3841919","8.6813731","0","C"
"707314","Sickingenplatz","49.3838061","8.682145","0","D"
"707315","Sickingenplatz","49.3839761","8.6823161","0","E"
"707811","Hildastraße","49.4017969","8.6347681","0","A"
"712511","Großparthweiher","49.49817","8.3830689","0","B"
"712512","Großparthweiher","49.49859","8.3834819","0","A"
"713512","Speyererhof","49.3955481","8.709355","0","A"
"714001","Großsachsen Süd","49.5087339","8.6559589","0","1"
"714002","Großsachsen Süd","49.5093239","8.6559589","0","2"
"714211","Adolf-Diesterweg-Straße","49.4898611","8.3654619","0","A"
"730311","Kolpingstraße","49.4867269","8.48263","0","A"
"730312","Kolpingstraße","49.4866219","8.4827911","0","B"
"752011","Walzmühle","49.4780431","8.4531381","0","B"
"752012","Walzmühle","49.477985","8.4539011","0","A"
"752042","Walzmühle","49.47729","8.4552039","0","V2"
"752111","Rheinallee Süd","49.4746281","8.4556081","0","A"
"752112","Rheinallee Süd","49.4738869","8.4553569","0","B"
"752212","Drehbrücke","49.47035","8.4528319","0","A"
"752241","Drehbrücke","49.47063","8.4534881","0","V1"
"752611","Rheinallee Nord","49.47656","8.4554111","0","A"
"814711","MA Waldorfschule","49.4493119","8.4730361","0","A"
"815311","Integrierte Gesamtschule (IGSLO)","49.4844919","8.3641781","0","A"